[{"id":107775,"name":"London","lat":51.5074456,"lon":-0.1277653,"type":"city"},{"id":132591,"name":"Woolverstone","lat":52.0027574,"lon":1.1820034,"type":"village"},{"id":132593,"name":"Chelmondiston","lat":51.989904,"lon":1.2087457,"type":"village"},{"id":132634,"name":"South Hanningfield","lat":51.6503583,"lon":0.5181949,"type":"village"},{"id":132635,"name":"West Hanningfield","lat":51.6709118,"lon":0.5001963,"type":"village"},{"id":134366,"name":"Netheravon","lat":51.2394252,"lon":-1.792083,"type":"village"},{"id":197019,"name":"Wartling","lat":50.8588827,"lon":0.3545243,"type":"village"},{"id":211619,"name":"Penkridge","lat":52.7246633,"lon":-2.1127563,"type":"town"},{"id":215666,"name":"St Ives","lat":52.3239055,"lon":-0.0741991,"type":"town"},{"id":216214,"name":"Chewton Mendip","lat":51.2756577,"lon":-2.5745489,"type":"village"},{"id":217990,"name":"Simpson Cross","lat":51.8330887,"lon":-5.0637348,"type":"village"},{"id":218107,"name":"Canaston Bridge","lat":51.8016874,"lon":-4.8051655,"type":"hamlet"},{"id":218157,"name":"Llanddewi Velfrey","lat":51.8188525,"lon":-4.6849115,"type":"village"},{"id":219421,"name":"Clifton","lat":53.3149887,"lon":-2.714016,"type":"hamlet"},{"id":227955,"name":"Magham Down","lat":50.8795845,"lon":0.2829733,"type":"hamlet"},{"id":232874,"name":"Swineshead Bridge","lat":52.9705857,"lon":-0.1879492,"type":"hamlet"},{"id":262679,"name":"Shottermill","lat":51.087698,"lon":-0.7341932,"type":"village"},{"id":262680,"name":"Hill Brow","lat":51.0303834,"lon":-0.8773562,"type":"village"},{"id":262681,"name":"Rake","lat":51.0439,"lon":-0.85468,"type":"village"},{"id":262718,"name":"Rogate","lat":51.0082008,"lon":-0.851128,"type":"village"},{"id":262719,"name":"Stedham","lat":50.9941,"lon":-0.772464,"type":"village"},{"id":262734,"name":"Hammer","lat":51.0844495,"lon":-0.7495874,"type":"village"},{"id":262735,"name":"Lynchmere","lat":51.0718208,"lon":-0.7599941,"type":"village"},{"id":262737,"name":"Milland","lat":51.0360946,"lon":-0.8061807,"type":"village"},{"id":262738,"name":"Hindhead","lat":51.1132995,"lon":-0.7332662,"type":"village"},{"id":262739,"name":"Fernhurst","lat":51.0481925,"lon":-0.7233101,"type":"village"},{"id":262740,"name":"Haslemere","lat":51.0876062,"lon":-0.7097768,"type":"town"},{"id":262742,"name":"Kingsley Green","lat":51.0676,"lon":-0.723331,"type":"hamlet"},{"id":262743,"name":"Redford","lat":51.0274221,"lon":-0.7716773,"type":"hamlet"},{"id":262744,"name":"Terwick Common","lat":51.0149944,"lon":-0.8362191,"type":"hamlet"},{"id":262745,"name":"Linch","lat":51.0407,"lon":-0.771504,"type":"hamlet"},{"id":262746,"name":"Iping","lat":50.9997615,"lon":-0.7860621,"type":"hamlet"},{"id":262748,"name":"Chithurst","lat":51.0005163,"lon":-0.8007933,"type":"hamlet"},{"id":262749,"name":"Borden","lat":51.0171018,"lon":-0.8202547,"type":"hamlet"},{"id":262751,"name":"Henley","lat":51.0233,"lon":-0.726045,"type":"hamlet"},{"id":262754,"name":"Woolmer Hill","lat":51.0895053,"lon":-0.751326,"type":"village"},{"id":262757,"name":"Hammer Vale","lat":51.086033,"lon":-0.759718,"type":"hamlet"},{"id":262764,"name":"Elsted Marsh","lat":50.9791203,"lon":-0.8123797,"type":"hamlet"},{"id":262765,"name":"Treyford","lat":50.9611616,"lon":-0.8258984,"type":"hamlet"},{"id":262769,"name":"Elsted","lat":50.9697,"lon":-0.838943,"type":"village"},{"id":262776,"name":"Dumpford","lat":50.9913497,"lon":-0.8190179,"type":"hamlet"},{"id":262777,"name":"East Harting","lat":50.9722,"lon":-0.860803,"type":"hamlet"},{"id":262782,"name":"South Harting","lat":50.969434,"lon":-0.8819102,"type":"village"},{"id":262783,"name":"Trotton","lat":50.9959795,"lon":-0.8104984,"type":"hamlet"},{"id":262794,"name":"West Harting","lat":50.9827,"lon":-0.884881,"type":"hamlet"},{"id":262795,"name":"Quebec","lat":50.9861782,"lon":-0.8924529,"type":"hamlet"},{"id":262802,"name":"Petersfield","lat":51.0024945,"lon":-0.9392027,"type":"town"},{"id":262803,"name":"Nyewood","lat":50.9888,"lon":-0.859556,"type":"village"},{"id":262817,"name":"Buriton","lat":50.9770516,"lon":-0.9498932,"type":"village"},{"id":262828,"name":"Steep","lat":51.0231618,"lon":-0.9458994,"type":"village"},{"id":266822,"name":"Fordingbridge","lat":50.926829,"lon":-1.7917011,"type":"town"},{"id":267983,"name":"Vernham Dean","lat":51.3070558,"lon":-1.5120558,"type":"village"},{"id":269248,"name":"Mottisfont","lat":51.0396475,"lon":-1.5384162,"type":"village"},{"id":269387,"name":"Timsbury","lat":51.0253721,"lon":-1.5092251,"type":"village"},{"id":271057,"name":"Minstead","lat":50.8975655,"lon":-1.6007673,"type":"village"},{"id":271062,"name":"Hamble-le-Rice","lat":50.8591605,"lon":-1.3144661,"type":"village"},{"id":271096,"name":"Emery Down","lat":50.8763729,"lon":-1.5970505,"type":"village"},{"id":271099,"name":"Totton","lat":50.9196406,"lon":-1.4894631,"type":"town"},{"id":271101,"name":"Stoford","lat":51.1198,"lon":-1.88151,"type":"hamlet"},{"id":271102,"name":"South Newton","lat":51.1096697,"lon":-1.8772135,"type":"village"},{"id":271103,"name":"Plaitford","lat":50.9732164,"lon":-1.6086832,"type":"village"},{"id":271107,"name":"Mere","lat":51.0894379,"lon":-2.2684427,"type":"town"},{"id":271134,"name":"Otterbourne","lat":51.0046503,"lon":-1.3472484,"type":"village"},{"id":271141,"name":"Dinton","lat":51.08264,"lon":-1.9806075,"type":"village"},{"id":271147,"name":"Teffont Magna","lat":51.0912591,"lon":-2.0160988,"type":"village"},{"id":271148,"name":"Baverstock","lat":51.0880047,"lon":-1.9610914,"type":"hamlet"},{"id":271156,"name":"New Cheriton","lat":51.0465518,"lon":-1.160768,"type":"hamlet"},{"id":271162,"name":"Hinton Ampner","lat":51.0449,"lon":-1.14876,"type":"hamlet"},{"id":271165,"name":"Chilcomb","lat":51.0524577,"lon":-1.2777747,"type":"village"},{"id":271166,"name":"Cheriton","lat":51.0527816,"lon":-1.1697809,"type":"village"},{"id":271182,"name":"Ovington","lat":51.0814774,"lon":-1.2012754,"type":"hamlet"},{"id":271195,"name":"Shawford","lat":51.0227078,"lon":-1.3265993,"type":"village"},{"id":271215,"name":"Chilland","lat":51.0922028,"lon":-1.2535164,"type":"hamlet"},{"id":271218,"name":"Easton","lat":51.0858802,"lon":-1.2728335,"type":"village"},{"id":271227,"name":"Itchen Stoke","lat":51.0881323,"lon":-1.2041183,"type":"hamlet"},{"id":271229,"name":"Martyr Worthy","lat":51.0926199,"lon":-1.2612389,"type":"hamlet"},{"id":271231,"name":"Lee","lat":50.9587342,"lon":-1.488129,"type":"hamlet"},{"id":271253,"name":"Sparsholt","lat":51.0783331,"lon":-1.3799448,"type":"village"},{"id":271258,"name":"Hursley","lat":51.0251858,"lon":-1.3902838,"type":"village"},{"id":271261,"name":"Fritham","lat":50.9246449,"lon":-1.6628487,"type":"village"},{"id":271324,"name":"Sway","lat":50.7860454,"lon":-1.6082658,"type":"village"},{"id":271344,"name":"Ludgershall","lat":51.2555899,"lon":-1.6221788,"type":"town"},{"id":271347,"name":"Upavon","lat":51.2937232,"lon":-1.8097451,"type":"village"},{"id":271354,"name":"Marlborough","lat":51.4202085,"lon":-1.7317558,"type":"town"},{"id":271361,"name":"Broad Chalke","lat":51.0280012,"lon":-1.9487857,"type":"village"},{"id":271362,"name":"Braishfield","lat":51.024305,"lon":-1.4665368,"type":"village"},{"id":271363,"name":"Bowerchalke","lat":51.0073621,"lon":-1.9768094,"type":"village"},{"id":271371,"name":"Martin","lat":50.9749789,"lon":-1.9033354,"type":"village"},{"id":271376,"name":"Wylye","lat":51.1376379,"lon":-1.9903138,"type":"village"},{"id":271386,"name":"Keyhaven","lat":50.7215277,"lon":-1.5680913,"type":"village"},{"id":271387,"name":"Downton","lat":50.9927562,"lon":-1.7517519,"type":"village"},{"id":271407,"name":"Burley Street","lat":50.8381851,"lon":-1.7143006,"type":"hamlet"},{"id":271408,"name":"Burley","lat":50.8266,"lon":-1.70164,"type":"village"},{"id":271409,"name":"Dean","lat":51.0772,"lon":-1.36824,"type":"hamlet"},{"id":271411,"name":"Godshill","lat":50.9339874,"lon":-1.7503944,"type":"village"},{"id":271414,"name":"Lyndhurst","lat":50.8727657,"lon":-1.5748436,"type":"village"},{"id":271416,"name":"New Milton","lat":50.7531006,"lon":-1.6550682,"type":"town"},{"id":271430,"name":"Barford St Martin","lat":51.0831355,"lon":-1.9217327,"type":"village"},{"id":271431,"name":"Bank","lat":50.8638806,"lon":-1.5948035,"type":"hamlet"},{"id":271443,"name":"Great Wishford","lat":51.118572,"lon":-1.8879639,"type":"village"},{"id":271446,"name":"Wilton","lat":51.0805315,"lon":-1.8607051,"type":"town"},{"id":271467,"name":"Boldre","lat":50.7840015,"lon":-1.5491901,"type":"village"},{"id":271485,"name":"Brockenhurst","lat":50.8192273,"lon":-1.5780214,"type":"village"},{"id":271491,"name":"Hurstbourne Tarrant","lat":51.2764338,"lon":-1.4521293,"type":"village"},{"id":271492,"name":"Hurstbourne Priors","lat":51.2159726,"lon":-1.3754484,"type":"village"},{"id":279640,"name":"Edgware","lat":51.6176443,"lon":-0.276739,"type":"town"},{"id":285520,"name":"Shenley","lat":51.6922678,"lon":-0.2812672,"type":"village"},{"id":304449,"name":"Cheddar","lat":51.2753365,"lon":-2.7766545,"type":"village"},{"id":304611,"name":"Wells","lat":51.2094511,"lon":-2.6451203,"type":"city"},{"id":315059,"name":"West Pennard","lat":51.1436698,"lon":-2.6499076,"type":"village"},{"id":315117,"name":"West Bradley","lat":51.1299766,"lon":-2.6279643,"type":"hamlet"},{"id":315166,"name":"Alhampton","lat":51.1114486,"lon":-2.5329698,"type":"village"},{"id":330167,"name":"Chilworth","lat":50.9637794,"lon":-1.4151229,"type":"village"},{"id":331190,"name":"Woolley","lat":53.6141552,"lon":-1.5159185,"type":"village"},{"id":331195,"name":"Stanley","lat":53.7132,"lon":-1.4745,"type":"town"},{"id":331202,"name":"Ferrybridge","lat":53.7106701,"lon":-1.2751652,"type":"village"},{"id":331203,"name":"Pontefract","lat":53.6917422,"lon":-1.3105722,"type":"town"},{"id":331205,"name":"Altofts","lat":53.7086,"lon":-1.43112,"type":"village"},{"id":358309,"name":"Leeds","lat":53.7974185,"lon":-1.5437941,"type":"city"},{"id":474890,"name":"Owslebury","lat":51.0081634,"lon":-1.2674491,"type":"village"},{"id":540682,"name":"Cade Street","lat":50.9663438,"lon":0.2838971,"type":"village"},{"id":540731,"name":"Rushlake Green","lat":50.9389396,"lon":0.3124098,"type":"village"},{"id":546206,"name":"South Marston","lat":51.5899016,"lon":-1.7223667,"type":"village"},{"id":582133,"name":"West End","lat":50.9269807,"lon":-1.3361909,"type":"village"},{"id":594015,"name":"Trudoxhill","lat":51.1917793,"lon":-2.360578,"type":"village"},{"id":601584,"name":"Newton Hill","lat":53.7027,"lon":-1.50319,"type":"village"},{"id":611111,"name":"Heath","lat":53.6756592,"lon":-1.4617726,"type":"village"},{"id":620167,"name":"Well End","lat":51.6712826,"lon":-0.2586984,"type":"hamlet"},{"id":640661,"name":"Chew Magna","lat":51.3660251,"lon":-2.6089889,"type":"village"},{"id":653007,"name":"Sutton Coldfield","lat":52.5623089,"lon":-1.8239794,"type":"town"},{"id":653008,"name":"Maney","lat":52.556256,"lon":-1.8263139,"type":"hamlet"},{"id":656974,"name":"Swaffham","lat":52.6481171,"lon":0.6909259,"type":"town"},{"id":683374,"name":"Stock's Cross","lat":50.9377687,"lon":-1.6168544,"type":"hamlet"},{"id":690813,"name":"Chapel Stile","lat":54.4400391,"lon":-3.048592,"type":"village"},{"id":692311,"name":"Tilstone Fearnall","lat":53.138627,"lon":-2.6455019,"type":"hamlet"},{"id":692350,"name":"Bulkeley","lat":53.0860367,"lon":-2.7006679,"type":"village"},{"id":692356,"name":"Utkinton","lat":53.1834604,"lon":-2.6811596,"type":"village"},{"id":692362,"name":"Tiverton","lat":53.1393479,"lon":-2.6716283,"type":"hamlet"},{"id":692627,"name":"St Helens","lat":50.6993696,"lon":-1.1130683,"type":"village"},{"id":696727,"name":"Dunbridge","lat":51.0327342,"lon":-1.5454743,"type":"hamlet"},{"id":696729,"name":"Romsey","lat":50.9891396,"lon":-1.4999044,"type":"town"},{"id":713269,"name":"Battle","lat":50.9173469,"lon":0.483904,"type":"town"},{"id":713302,"name":"Hailsham","lat":50.8648011,"lon":0.2578904,"type":"town"},{"id":720862,"name":"Newick","lat":50.9743216,"lon":0.0189285,"type":"village"},{"id":759988,"name":"Brading","lat":50.6812083,"lon":-1.1422319,"type":"town"},{"id":836973,"name":"Groombridge","lat":51.1135338,"lon":0.184987,"type":"village"},{"id":939441,"name":"Tremayne","lat":50.4472428,"lon":-4.9052652,"type":"village"},{"id":1130941,"name":"Combe Martin","lat":51.2053768,"lon":-4.034959,"type":"village"},{"id":1564779,"name":"Twyford","lat":51.0182546,"lon":-1.3151819,"type":"village"},{"id":1564780,"name":"Upham","lat":50.9829694,"lon":-1.2339071,"type":"village"},{"id":1842337,"name":"Great Offley","lat":51.9292697,"lon":-0.3395078,"type":"village"},{"id":1947201,"name":"Bath","lat":51.3813864,"lon":-2.3596963,"type":"city"},{"id":2386520,"name":"Yarmouth","lat":50.7055054,"lon":-1.4986357,"type":"town"},{"id":2386521,"name":"Newport","lat":50.7003707,"lon":-1.2952039,"type":"town"},{"id":2433291,"name":"Alum Bay","lat":50.6678791,"lon":-1.5657608,"type":"hamlet"},{"id":2433296,"name":"Brook","lat":50.6527399,"lon":-1.4491112,"type":"village"},{"id":2433302,"name":"Colwell Bay","lat":50.6890465,"lon":-1.5379669,"type":"village"},{"id":2433309,"name":"Freshwater Bay","lat":50.6703141,"lon":-1.5109774,"type":"village"},{"id":2433321,"name":"Hulverstone","lat":50.6545786,"lon":-1.4385461,"type":"hamlet"},{"id":2433329,"name":"Mottistone","lat":50.6513187,"lon":-1.4262294,"type":"hamlet"},{"id":2510480,"name":"Rye","lat":50.9511871,"lon":0.7327667,"type":"town"},{"id":2510592,"name":"Henley-on-Thames","lat":51.5375786,"lon":-0.9050287,"type":"town"},{"id":2510689,"name":"Wargrave","lat":51.5021143,"lon":-0.8665729,"type":"village"},{"id":2510847,"name":"Wokingham","lat":51.4120318,"lon":-0.8324037,"type":"town"},{"id":2511067,"name":"Taplow","lat":51.5304391,"lon":-0.6889289,"type":"village"},{"id":3210775,"name":"Llangloffan","lat":51.950188,"lon":-5.0494664,"type":"hamlet"},{"id":3211692,"name":"Llandeloy","lat":51.9009316,"lon":-5.1175427,"type":"hamlet"},{"id":3212316,"name":"Penycwm","lat":51.8675556,"lon":-5.1248731,"type":"hamlet"},{"id":3225941,"name":"Casmael / Puncheston","lat":51.9302009,"lon":-4.9000667,"type":"village"},{"id":3226018,"name":"Castlebythe","lat":51.924724,"lon":-4.8787896,"type":"hamlet"},{"id":3226323,"name":"Tufton","lat":51.917377,"lon":-4.8511235,"type":"hamlet"},{"id":3226436,"name":"Henry's Moat","lat":51.9141834,"lon":-4.8467401,"type":"village"},{"id":3252090,"name":"Stanway","lat":51.9894702,"lon":-1.9116718,"type":"village"},{"id":3371030,"name":"Haroldston West","lat":51.8004623,"lon":-5.0944409,"type":"hamlet"},{"id":3375290,"name":"Portfield Gate","lat":51.7989885,"lon":-5.0210891,"type":"village"},{"id":3396280,"name":"Wiseman's Bridge","lat":51.7259307,"lon":-4.68348,"type":"hamlet"},{"id":3718432,"name":"Ambleston","lat":51.8949679,"lon":-4.9064816,"type":"village"},{"id":3718908,"name":"Triffleton","lat":51.8788327,"lon":-4.9407075,"type":"hamlet"},{"id":3720388,"name":"Summerhill","lat":51.8410619,"lon":-5.0570205,"type":"hamlet"},{"id":3720438,"name":"Cuffern","lat":51.8501027,"lon":-5.0590107,"type":"hamlet"},{"id":3857512,"name":"Havenstreet","lat":50.7101581,"lon":-1.2062708,"type":"village"},{"id":4085935,"name":"Oakley","lat":52.1710689,"lon":-0.524367,"type":"village"},{"id":4085939,"name":"Clapham","lat":52.1627654,"lon":-0.4987343,"type":"village"},{"id":4085941,"name":"Bedford","lat":52.1363806,"lon":-0.4675041,"type":"town"},{"id":4118104,"name":"Dummer","lat":51.21044,"lon":-1.1595595,"type":"village"},{"id":4370301,"name":"Shanklin","lat":50.6288132,"lon":-1.1779031,"type":"town"},{"id":5287295,"name":"Begbroke","lat":51.8224193,"lon":-1.317523,"type":"village"},{"id":5287297,"name":"Woodstock","lat":51.8474887,"lon":-1.3545343,"type":"town"},{"id":5287952,"name":"Yarnton","lat":51.8087625,"lon":-1.3094346,"type":"village"},{"id":5418911,"name":"Fawler","lat":51.8516247,"lon":-1.4624722,"type":"hamlet"},{"id":5418912,"name":"Stonesfield","lat":51.8512328,"lon":-1.4295238,"type":"village"},{"id":5494559,"name":"Kidlington","lat":51.823462,"lon":-1.2885317,"type":"town"},{"id":5509843,"name":"Brighstone","lat":50.645324,"lon":-1.3994257,"type":"village"},{"id":5638800,"name":"Fradley","lat":52.7189241,"lon":-1.7649747,"type":"village"},{"id":6368257,"name":"Winford","lat":50.6529228,"lon":-1.2016116,"type":"village"},{"id":6962506,"name":"Grange-over-Sands","lat":54.1930633,"lon":-2.9094791,"type":"town"},{"id":6962587,"name":"Cartmel","lat":54.2009158,"lon":-2.9529069,"type":"village"},{"id":7024305,"name":"Wroxall","lat":50.614147,"lon":-1.2195637,"type":"village"},{"id":7140849,"name":"Awbridge","lat":51.0094769,"lon":-1.5264836,"type":"village"},{"id":7374555,"name":"Portskewett","lat":51.5904472,"lon":-2.7262919,"type":"village"},{"id":7375923,"name":"Leechpool","lat":51.6009721,"lon":-2.7174983,"type":"village"},{"id":7375924,"name":"Crick","lat":51.6056911,"lon":-2.7389112,"type":"village"},{"id":7375925,"name":"Caerwent","lat":51.6100619,"lon":-2.7643084,"type":"village"},{"id":7440484,"name":"Virginia Water","lat":51.4033624,"lon":-0.5661711,"type":"village"},{"id":7537609,"name":"Llangorwen","lat":52.4358703,"lon":-4.0583963,"type":"village"},{"id":7537630,"name":"Bow Street","lat":52.4418573,"lon":-4.0286355,"type":"village"},{"id":8084314,"name":"Lake","lat":50.6483691,"lon":-1.1690406,"type":"village"},{"id":8087516,"name":"Littleton","lat":53.1951126,"lon":-2.836226,"type":"village"},{"id":8087517,"name":"Christleton","lat":53.1834346,"lon":-2.834302,"type":"village"},{"id":8087518,"name":"Guilden Sutton","lat":53.2077799,"lon":-2.8298614,"type":"village"},{"id":8087529,"name":"Huntington","lat":53.1754796,"lon":-2.8656287,"type":"village"},{"id":8087534,"name":"Rowton","lat":53.1712431,"lon":-2.8252625,"type":"village"},{"id":8087536,"name":"Great Boughton","lat":53.1897555,"lon":-2.8562511,"type":"village"},{"id":8087537,"name":"Chester","lat":53.1908873,"lon":-2.8908955,"type":"city"},{"id":8089622,"name":"West Dean","lat":51.0416591,"lon":-1.6352745,"type":"village"},{"id":8092846,"name":"Totland","lat":50.6844566,"lon":-1.541718,"type":"village"},{"id":8092847,"name":"Freshwater","lat":50.6814402,"lon":-1.5231372,"type":"village"},{"id":8344214,"name":"Houghton Conquest","lat":52.0624959,"lon":-0.4762832,"type":"village"},{"id":8421363,"name":"Saul Junction","lat":51.7818723,"lon":-2.3547755,"type":"hamlet"},{"id":8583156,"name":"Tarvin","lat":53.1977774,"lon":-2.7629524,"type":"village"},{"id":8997358,"name":"Caldicot","lat":51.5912466,"lon":-2.7517629,"type":"town"},{"id":9113440,"name":"Huxley","lat":53.1482537,"lon":-2.7310092,"type":"hamlet"},{"id":9113524,"name":"Hargrave","lat":53.1543436,"lon":-2.7693208,"type":"hamlet"},{"id":9213609,"name":"Whitwell","lat":50.5987392,"lon":-1.2643739,"type":"village"},{"id":9213610,"name":"Niton","lat":50.5872952,"lon":-1.2822714,"type":"village"},{"id":9238513,"name":"Godshill","lat":50.6340644,"lon":-1.2540948,"type":"village"},{"id":9382964,"name":"Bramshaw","lat":50.9407584,"lon":-1.617454,"type":"village"},{"id":9383002,"name":"Brook","lat":50.9254563,"lon":-1.6139838,"type":"hamlet"},{"id":9383436,"name":"Nomansland","lat":50.9556577,"lon":-1.6413037,"type":"village"},{"id":9713548,"name":"Cranborne","lat":50.9188232,"lon":-1.9218331,"type":"village"},{"id":9738225,"name":"Hedge End","lat":50.9154346,"lon":-1.3071423,"type":"town"},{"id":9738226,"name":"Botley","lat":50.914465,"lon":-1.2702405,"type":"village"},{"id":9838155,"name":"Shedfield","lat":50.915919,"lon":-1.2023406,"type":"village"},{"id":9893937,"name":"Seaview","lat":50.7191353,"lon":-1.1155786,"type":"village"},{"id":9893939,"name":"Nettlestone","lat":50.7128115,"lon":-1.1145006,"type":"village"},{"id":10006533,"name":"Storrington","lat":50.9184454,"lon":-0.45555,"type":"town"},{"id":10021975,"name":"Loughborough","lat":52.7723859,"lon":-1.2077985,"type":"town"},{"id":10021976,"name":"Leicester","lat":52.6362,"lon":-1.1331969,"type":"city"},{"id":10292814,"name":"Biggar","lat":55.6244917,"lon":-3.5215795,"type":"town"},{"id":10294641,"name":"Waverton","lat":53.1712483,"lon":-2.8147316,"type":"village"},{"id":10320273,"name":"Wick","lat":58.4425516,"lon":-3.0915827,"type":"town"},{"id":10455849,"name":"Combe","lat":51.8403055,"lon":-1.4028423,"type":"village"},{"id":10458171,"name":"Bladon","lat":51.8317866,"lon":-1.3507861,"type":"village"},{"id":10458233,"name":"Long Hanborough","lat":51.8243053,"lon":-1.3944855,"type":"village"},{"id":10459811,"name":"Quorn","lat":52.7429049,"lon":-1.1700468,"type":"village"},{"id":10459812,"name":"Mountsorrel","lat":52.7322858,"lon":-1.1427158,"type":"village"},{"id":10460852,"name":"Newtown Linford","lat":52.6847976,"lon":-1.231281,"type":"village"},{"id":10460853,"name":"Anstey","lat":52.6745715,"lon":-1.1893416,"type":"village"},{"id":10505244,"name":"Steynton","lat":51.7295342,"lon":-5.0173218,"type":"village"},{"id":10537623,"name":"Wickham","lat":50.89936,"lon":-1.1862992,"type":"village"},{"id":10538212,"name":"Woodhouse Eaves","lat":52.7244478,"lon":-1.2170181,"type":"village"},{"id":10582517,"name":"Atherstone","lat":52.5772439,"lon":-1.5433954,"type":"town"},{"id":10671639,"name":"Lincoln","lat":53.2293545,"lon":-0.5404819,"type":"city"},{"id":10671908,"name":"Waddington","lat":53.1672819,"lon":-0.5390813,"type":"village"},{"id":10672331,"name":"Harmston","lat":53.1485656,"lon":-0.547871,"type":"village"},{"id":10800407,"name":"Whittlebury","lat":52.0901939,"lon":-0.9922948,"type":"village"},{"id":10863338,"name":"Bicester","lat":51.8988385,"lon":-1.151877,"type":"town"},{"id":10989686,"name":"Mollington","lat":53.2263462,"lon":-2.9214305,"type":"village"},{"id":10991148,"name":"Queens Park","lat":53.1882203,"lon":-2.8786594,"type":"village"},{"id":10991152,"name":"Plemstall","lat":53.2257449,"lon":-2.8149892,"type":"hamlet"},{"id":10991153,"name":"Mickle Trafford","lat":53.2217842,"lon":-2.8324698,"type":"village"},{"id":11079357,"name":"Upton","lat":50.7106928,"lon":-1.1793077,"type":"hamlet"},{"id":11079382,"name":"Ashey","lat":50.6993138,"lon":-1.1713836,"type":"hamlet"},{"id":11081023,"name":"Bletchingdon","lat":51.8551298,"lon":-1.2718614,"type":"village"},{"id":11127374,"name":"Glasgow","lat":55.861155,"lon":-4.2501687,"type":"city"},{"id":11145756,"name":"Horton Heath","lat":50.953912,"lon":-1.294412,"type":"village"},{"id":11163384,"name":"Apse Heath","lat":50.6473203,"lon":-1.2015868,"type":"hamlet"},{"id":11222671,"name":"Eccleston","lat":53.1563974,"lon":-2.8796957,"type":"village"},{"id":11235057,"name":"Norwich","lat":52.6285576,"lon":1.2923954,"type":"city"},{"id":11398583,"name":"East Cowes","lat":50.7594841,"lon":-1.2852106,"type":"town"},{"id":11398584,"name":"Cowes","lat":50.7633176,"lon":-1.2985186,"type":"town"},{"id":11398930,"name":"Ryde","lat":50.7299865,"lon":-1.1603699,"type":"town"},{"id":11398993,"name":"Sandown","lat":50.6547492,"lon":-1.1530106,"type":"town"},{"id":11398996,"name":"Ventnor","lat":50.594976,"lon":-1.2029747,"type":"town"},{"id":11428987,"name":"Lockerley","lat":51.0396802,"lon":-1.5856302,"type":"village"},{"id":11524752,"name":"Malvern","lat":52.1159559,"lon":-2.3258985,"type":"town"},{"id":11531158,"name":"Wittering","lat":52.6099806,"lon":-0.4449699,"type":"village"},{"id":11601143,"name":"Malborough","lat":50.2434652,"lon":-3.8098668,"type":"village"},{"id":11658442,"name":"Charlbury","lat":51.8726941,"lon":-1.4823897,"type":"town"},{"id":11663410,"name":"Finstock","lat":51.8458022,"lon":-1.4770007,"type":"village"},{"id":11753368,"name":"Kimbridge","lat":51.0285224,"lon":-1.5314139,"type":"hamlet"},{"id":11753371,"name":"Michelmersh","lat":51.0322374,"lon":-1.5048103,"type":"village"},{"id":11960093,"name":"Corbridge","lat":54.9740218,"lon":-2.0175509,"type":"town"},{"id":11980133,"name":"Yafford","lat":50.6357866,"lon":-1.3686928,"type":"hamlet"},{"id":11998197,"name":"Calbourne","lat":50.6778236,"lon":-1.3997714,"type":"village"},{"id":12014296,"name":"Coleby","lat":53.1328743,"lon":-0.5426358,"type":"village"},{"id":12014300,"name":"Fulbeck","lat":53.0417943,"lon":-0.5874992,"type":"village"},{"id":12014308,"name":"Navenby","lat":53.1066184,"lon":-0.5239171,"type":"village"},{"id":12017115,"name":"Shorwell","lat":50.6434729,"lon":-1.3582482,"type":"village"},{"id":12018726,"name":"Chale","lat":50.5974272,"lon":-1.3159829,"type":"village"},{"id":12027072,"name":"Arreton","lat":50.6756912,"lon":-1.2399347,"type":"village"},{"id":12084843,"name":"Dunham on the Hill","lat":53.2489717,"lon":-2.7922552,"type":"village"},{"id":12133397,"name":"Sandridge","lat":51.7807377,"lon":-0.3053949,"type":"village"},{"id":12141097,"name":"Turvey","lat":52.1622615,"lon":-0.6249986,"type":"village"},{"id":12612264,"name":"East End","lat":51.8361365,"lon":-1.3807814,"type":"hamlet"},{"id":12612477,"name":"Tollard Royal","lat":50.9594291,"lon":-2.07987,"type":"village"},{"id":12619748,"name":"Harrold","lat":52.2017452,"lon":-0.6087087,"type":"village"},{"id":12631660,"name":"Westerham","lat":51.2671155,"lon":0.0706133,"type":"town"},{"id":12711805,"name":"Wootton","lat":52.0960512,"lon":-0.5305613,"type":"village"},{"id":12711826,"name":"Dunnington","lat":53.9646114,"lon":-0.9817563,"type":"village"},{"id":12712963,"name":"Holtby","lat":53.9792609,"lon":-0.9729827,"type":"village"},{"id":12712981,"name":"Gate Helmsley","lat":53.9893033,"lon":-0.9476017,"type":"hamlet"},{"id":12722785,"name":"Cranfield","lat":52.0690205,"lon":-0.6079317,"type":"village"},{"id":12732392,"name":"Stamford Bridge","lat":53.9907008,"lon":-0.9131156,"type":"village"},{"id":12805909,"name":"Oxford","lat":51.7520131,"lon":-1.2578499,"type":"city"},{"id":12815723,"name":"Kegworth","lat":52.8355376,"lon":-1.2779346,"type":"village"},{"id":12815724,"name":"Hathern","lat":52.7964217,"lon":-1.2558635,"type":"village"},{"id":12817234,"name":"Cropston","lat":52.6926689,"lon":-1.1816586,"type":"village"},{"id":12817235,"name":"Swithland","lat":52.7127177,"lon":-1.1882174,"type":"village"},{"id":12859877,"name":"Giggleswick","lat":54.0718632,"lon":-2.2881032,"type":"village"},{"id":12859897,"name":"Settle","lat":54.0690631,"lon":-2.2763604,"type":"town"},{"id":12860528,"name":"Buckingham","lat":51.999928,"lon":-0.9876832,"type":"town"},{"id":12860529,"name":"Aylesbury","lat":51.8161412,"lon":-0.8130383,"type":"town"},{"id":12865114,"name":"Gawthrop","lat":54.2808349,"lon":-2.4731219,"type":"village"},{"id":12866724,"name":"Stainforth","lat":54.101956,"lon":-2.2749464,"type":"village"},{"id":12943935,"name":"Farndon","lat":53.0842541,"lon":-2.8757573,"type":"village"},{"id":12943937,"name":"Churton","lat":53.1012001,"lon":-2.8701894,"type":"village"},{"id":12943938,"name":"Aldford","lat":53.1279368,"lon":-2.8704239,"type":"village"},{"id":12957031,"name":"Crawcrook","lat":54.9666636,"lon":-1.7892454,"type":"village"},{"id":12981759,"name":"Woking","lat":51.3201891,"lon":-0.5564726,"type":"town"},{"id":13375442,"name":"Minnis Bay","lat":51.3801967,"lon":1.2856027,"type":"village"},{"id":13452325,"name":"Chew Stoke","lat":51.3538006,"lon":-2.6338865,"type":"village"},{"id":13464524,"name":"Leominster","lat":52.2273558,"lon":-2.7375333,"type":"town"},{"id":13492441,"name":"Great Bentley","lat":51.8563015,"lon":1.0636401,"type":"village"},{"id":13492444,"name":"Aingers Green","lat":51.8423111,"lon":1.0735308,"type":"village"},{"id":13797337,"name":"Stow-on-the-Wold","lat":51.9303426,"lon":-1.7230154,"type":"town"},{"id":13797765,"name":"Banbury","lat":52.0601807,"lon":-1.3402795,"type":"town"},{"id":13797772,"name":"Long Compton","lat":51.9958021,"lon":-1.5803106,"type":"village"},{"id":13797775,"name":"Salford","lat":51.9493617,"lon":-1.582681,"type":"village"},{"id":13799740,"name":"Stroud","lat":51.0074405,"lon":-0.9721679,"type":"village"},{"id":13800133,"name":"Bramdean","lat":51.0477273,"lon":-1.125843,"type":"village"},{"id":13800368,"name":"Rowlands Gill","lat":54.9220987,"lon":-1.7503658,"type":"village"},{"id":13801622,"name":"Cresswell","lat":55.2352886,"lon":-1.5398744,"type":"village"},{"id":13801661,"name":"Forest Hall","lat":55.02334,"lon":-1.5663547,"type":"village"},{"id":13802760,"name":"Fala","lat":55.8385987,"lon":-2.8991475,"type":"village"},{"id":13802761,"name":"Humbie Dean","lat":55.851158,"lon":-2.8510417,"type":"hamlet"},{"id":13870918,"name":"Radstock","lat":51.2919489,"lon":-2.4476231,"type":"town"},{"id":13870924,"name":"Midsomer Norton","lat":51.2865803,"lon":-2.4808115,"type":"town"},{"id":13871041,"name":"Hapsford","lat":53.2641719,"lon":-2.790562,"type":"hamlet"},{"id":13871055,"name":"Elton","lat":53.2754849,"lon":-2.8121206,"type":"village"},{"id":13878144,"name":"Catford","lat":51.4453215,"lon":-0.0197534,"type":"town"},{"id":13878787,"name":"Oscroft","lat":53.197395,"lon":-2.7412395,"type":"village"},{"id":13878869,"name":"Ashton Hayes","lat":53.2198907,"lon":-2.7405987,"type":"village"},{"id":13883499,"name":"Maltby","lat":53.4235348,"lon":-1.1968457,"type":"town"},{"id":13883500,"name":"Hellaby","lat":53.4223115,"lon":-1.2405269,"type":"village"},{"id":13889551,"name":"Backford","lat":53.2412688,"lon":-2.901691,"type":"village"},{"id":13889552,"name":"Moston","lat":53.2263112,"lon":-2.8985512,"type":"village"},{"id":13890687,"name":"Little Barrow","lat":53.2266593,"lon":-2.7966537,"type":"hamlet"},{"id":13890690,"name":"Hoole Village","lat":53.2165123,"lon":-2.8526588,"type":"hamlet"},{"id":13890692,"name":"Wervin","lat":53.2409306,"lon":-2.8677156,"type":"hamlet"},{"id":13890693,"name":"Picton","lat":53.2366099,"lon":-2.8467669,"type":"hamlet"},{"id":13890695,"name":"Pipers Ash","lat":53.2026734,"lon":-2.8510029,"type":"hamlet"},{"id":13914796,"name":"Bathampton","lat":51.3954453,"lon":-2.3243521,"type":"village"},{"id":13924175,"name":"Stamford Bridge","lat":53.201363,"lon":-2.7981684,"type":"hamlet"},{"id":13964265,"name":"East Ham","lat":51.5330843,"lon":0.0544661,"type":"town"},{"id":13969468,"name":"Hawkley","lat":51.0568406,"lon":-0.9377235,"type":"village"},{"id":14076017,"name":"Margate","lat":51.3878174,"lon":1.3819699,"type":"town"},{"id":14193089,"name":"Islip","lat":51.8231826,"lon":-1.2364036,"type":"village"},{"id":14210602,"name":"Newbury","lat":51.4020243,"lon":-1.3242212,"type":"town"},{"id":14329663,"name":"Leafield","lat":51.8349404,"lon":-1.5431887,"type":"village"},{"id":14329665,"name":"Ramsden","lat":51.8344175,"lon":-1.4832103,"type":"village"},{"id":14329666,"name":"Crawley","lat":51.8062564,"lon":-1.5066056,"type":"village"},{"id":14329718,"name":"Hailey","lat":51.8123074,"lon":-1.4897243,"type":"village"},{"id":14329719,"name":"Eynsham","lat":51.7841161,"lon":-1.3755251,"type":"village"},{"id":14329771,"name":"Wootton","lat":51.8755106,"lon":-1.3642787,"type":"village"},{"id":14329840,"name":"Chadlington","lat":51.8958295,"lon":-1.5233375,"type":"village"},{"id":14332269,"name":"Witney","lat":51.7838848,"lon":-1.4852861,"type":"town"},{"id":14336562,"name":"Burford","lat":51.8081927,"lon":-1.6358183,"type":"town"},{"id":14417329,"name":"Freeland","lat":51.8140937,"lon":-1.4034526,"type":"village"},{"id":14417584,"name":"Church Hanborough","lat":51.8129211,"lon":-1.3826302,"type":"village"},{"id":14418580,"name":"New Yatt","lat":51.8143048,"lon":-1.4570458,"type":"hamlet"},{"id":14418581,"name":"North Leigh","lat":51.8147841,"lon":-1.4410834,"type":"village"},{"id":14493238,"name":"Neat Enstone","lat":51.9159197,"lon":-1.4537998,"type":"village"},{"id":14494030,"name":"Spelsbury","lat":51.8928689,"lon":-1.4926476,"type":"village"},{"id":14547386,"name":"Clotton","lat":53.1715277,"lon":-2.7108458,"type":"village"},{"id":14547387,"name":"Duddon","lat":53.1776148,"lon":-2.72823,"type":"village"},{"id":14554187,"name":"Chettisham","lat":52.4248794,"lon":0.2750528,"type":"village"},{"id":14570858,"name":"Witcham Toll","lat":52.3910374,"lon":0.1501591,"type":"hamlet"},{"id":14570879,"name":"Chatteris","lat":52.4549017,"lon":0.0504338,"type":"town"},{"id":14584519,"name":"Ryhall","lat":52.6851189,"lon":-0.4701912,"type":"village"},{"id":14584584,"name":"Pickworth","lat":52.7131437,"lon":-0.5312257,"type":"hamlet"},{"id":14588091,"name":"Cottesmore","lat":52.7135125,"lon":-0.6628332,"type":"village"},{"id":14600264,"name":"Christchurch","lat":50.734902,"lon":-1.7778853,"type":"town"},{"id":14600267,"name":"Milford on Sea","lat":50.7259886,"lon":-1.5891686,"type":"village"},{"id":14600269,"name":"Everton","lat":50.7467376,"lon":-1.588009,"type":"village"},{"id":14605806,"name":"Bucks Green","lat":51.0859801,"lon":-0.4605086,"type":"village"},{"id":14617103,"name":"Groby","lat":52.659772,"lon":-1.224949,"type":"village"},{"id":14617104,"name":"Ratby","lat":52.647424,"lon":-1.2423762,"type":"village"},{"id":14644540,"name":"Tarporley","lat":53.1593697,"lon":-2.6683761,"type":"village"},{"id":14676757,"name":"Wilden","lat":52.182765,"lon":-0.3960161,"type":"village"},{"id":14676769,"name":"Ravensden","lat":52.1778851,"lon":-0.4427137,"type":"village"},{"id":14694160,"name":"Kelsall","lat":53.2081611,"lon":-2.7124586,"type":"village"},{"id":14694162,"name":"Willington","lat":53.1958858,"lon":-2.7033926,"type":"village"},{"id":14698913,"name":"Leatherhead","lat":51.2955044,"lon":-0.32931,"type":"town"},{"id":14698916,"name":"Dorking","lat":51.2325184,"lon":-0.3306724,"type":"town"},{"id":14716396,"name":"Tattenhall","lat":53.1186798,"lon":-2.7695031,"type":"village"},{"id":14716397,"name":"Saighton","lat":53.1521679,"lon":-2.8340367,"type":"village"},{"id":14719560,"name":"South Hinksey","lat":51.733433,"lon":-1.2633375,"type":"village"},{"id":14725289,"name":"Elstow","lat":52.1153339,"lon":-0.4681274,"type":"village"},{"id":14733771,"name":"Wendlebury","lat":51.872327,"lon":-1.186175,"type":"village"},{"id":14733979,"name":"Weston on the Green","lat":51.864399,"lon":-1.2266697,"type":"village"},{"id":14776470,"name":"Lechlade","lat":51.6944942,"lon":-1.6922057,"type":"town"},{"id":14808039,"name":"Reading","lat":51.4564242,"lon":-0.9700664,"type":"town"},{"id":14837594,"name":"Mapledurham","lat":51.4856715,"lon":-1.0359423,"type":"village"},{"id":14852698,"name":"Cotton End","lat":52.093979,"lon":-0.4172917,"type":"village"},{"id":14852700,"name":"Wilstead","lat":52.0794851,"lon":-0.448469,"type":"village"},{"id":14867417,"name":"Farrington Gurney","lat":51.2972903,"lon":-2.5366598,"type":"village"},{"id":14880495,"name":"Lower Kinnerton","lat":53.1520862,"lon":-2.9807883,"type":"hamlet"},{"id":14880496,"name":"Dodleston","lat":53.1430169,"lon":-2.9557902,"type":"village"},{"id":14880497,"name":"Gorstella","lat":53.1526453,"lon":-2.9623005,"type":"hamlet"},{"id":14880498,"name":"Higher Kinnerton","lat":53.1439618,"lon":-3.0034398,"type":"village"},{"id":14951303,"name":"Winford","lat":51.3822376,"lon":-2.6606443,"type":"village"},{"id":14951389,"name":"Pensford","lat":51.3713703,"lon":-2.5483904,"type":"village"},{"id":14953540,"name":"Hockliffe","lat":51.9321488,"lon":-0.5838148,"type":"village"},{"id":14953542,"name":"Woburn","lat":51.9887486,"lon":-0.6192052,"type":"village"},{"id":14953881,"name":"Chesham","lat":51.7062914,"lon":-0.6123113,"type":"town"},{"id":14954077,"name":"Little Chalfont","lat":51.6700802,"lon":-0.5632091,"type":"village"},{"id":14956504,"name":"Harrowden","lat":52.1133448,"lon":-0.4372859,"type":"hamlet"},{"id":14956587,"name":"Cardington","lat":52.1179428,"lon":-0.4137868,"type":"village"},{"id":15195729,"name":"Stamford","lat":52.6519973,"lon":-0.4804579,"type":"town"},{"id":15358565,"name":"Fair Oak","lat":50.9652971,"lon":-1.2998218,"type":"village"},{"id":15412776,"name":"Widford","lat":51.8237259,"lon":0.0588805,"type":"village"},{"id":15417683,"name":"Church Enstone","lat":51.9220933,"lon":-1.4502893,"type":"village"},{"id":15423808,"name":"Lower Shiplake","lat":51.510194,"lon":-0.8804912,"type":"village"},{"id":15656597,"name":"Stanton Drew","lat":51.3670204,"lon":-2.5832077,"type":"village"},{"id":15656598,"name":"West Harptree","lat":51.3094056,"lon":-2.6363363,"type":"village"},{"id":15659464,"name":"Stevenage","lat":51.9016663,"lon":-0.2027155,"type":"town"},{"id":15693273,"name":"Bampton","lat":51.724965,"lon":-1.5447554,"type":"village"},{"id":15696464,"name":"Fyfield","lat":51.6872279,"lon":-1.3915106,"type":"village"},{"id":15696465,"name":"Kingston Bagpuize","lat":51.6817946,"lon":-1.4135375,"type":"village"},{"id":15697120,"name":"Brize Norton","lat":51.7664356,"lon":-1.5664074,"type":"village"},{"id":15697246,"name":"Clanfield","lat":51.7162873,"lon":-1.5888083,"type":"village"},{"id":15703170,"name":"Swindon","lat":51.5615327,"lon":-1.7854322,"type":"town"},{"id":15705287,"name":"Wantage","lat":51.5878072,"lon":-1.4249258,"type":"town"},{"id":15707760,"name":"Great Tew","lat":51.9607835,"lon":-1.4255263,"type":"village"},{"id":15708932,"name":"Hempton","lat":51.9832171,"lon":-1.3532931,"type":"village"},{"id":15709095,"name":"Deddington","lat":51.9814489,"lon":-1.3212113,"type":"village"},{"id":15722951,"name":"Over Norton","lat":51.9524554,"lon":-1.5420678,"type":"village"},{"id":15732153,"name":"Ascot","lat":51.4101286,"lon":-0.6680194,"type":"town"},{"id":15732180,"name":"Sunninghill","lat":51.4015129,"lon":-0.6559139,"type":"village"},{"id":15733947,"name":"Hatchmere","lat":53.2421234,"lon":-2.6668448,"type":"hamlet"},{"id":15740585,"name":"Allbrook","lat":50.9879393,"lon":-1.3468442,"type":"village"},{"id":15843474,"name":"Wytham","lat":51.7747826,"lon":-1.3121166,"type":"village"},{"id":15905868,"name":"Cirencester","lat":51.7171029,"lon":-1.9661616,"type":"town"},{"id":15956920,"name":"Pentridge","lat":50.9602372,"lon":-1.952243,"type":"hamlet"},{"id":16143657,"name":"Bishop Wilton","lat":53.9864578,"lon":-0.7851911,"type":"village"},{"id":16196933,"name":"Baldock","lat":51.9889973,"lon":-0.1882079,"type":"town"},{"id":16215891,"name":"Lavendon","lat":52.1734122,"lon":-0.6603317,"type":"village"},{"id":16342053,"name":"Kennington","lat":51.7165128,"lon":-1.2451583,"type":"village"},{"id":16384069,"name":"Taston","lat":51.8960803,"lon":-1.4800092,"type":"hamlet"},{"id":16384326,"name":"Fulwell","lat":51.9066258,"lon":-1.4516462,"type":"hamlet"},{"id":16385161,"name":"Cleveley","lat":51.9128914,"lon":-1.4332308,"type":"village"},{"id":16385991,"name":"Radford","lat":51.9124128,"lon":-1.4069537,"type":"hamlet"},{"id":16386307,"name":"Kiddington","lat":51.902818,"lon":-1.3988084,"type":"village"},{"id":16388178,"name":"Glympton","lat":51.8907847,"lon":-1.381207,"type":"village"},{"id":16390164,"name":"Cumnor","lat":51.7349255,"lon":-1.3331621,"type":"village"},{"id":16483546,"name":"Manley Common","lat":53.2428172,"lon":-2.7182578,"type":"hamlet"},{"id":16483547,"name":"Helsby","lat":53.2734406,"lon":-2.7598867,"type":"village"},{"id":16486527,"name":"Teddington","lat":51.4277844,"lon":-0.333653,"type":"town"},{"id":16576720,"name":"Exbury","lat":50.8001031,"lon":-1.3929954,"type":"hamlet"},{"id":16581123,"name":"Calshot","lat":50.8116628,"lon":-1.3263777,"type":"village"},{"id":16662563,"name":"Silverstone","lat":52.0917705,"lon":-1.0260194,"type":"village"},{"id":16662564,"name":"Abthorpe","lat":52.113327,"lon":-1.0528913,"type":"village"},{"id":16664272,"name":"Towcester","lat":52.132756,"lon":-0.9894811,"type":"town"},{"id":16669355,"name":"Fawley","lat":50.8273511,"lon":-1.3512964,"type":"village"},{"id":16676467,"name":"Hythe","lat":50.8698489,"lon":-1.3982785,"type":"town"},{"id":16703813,"name":"Alvanley","lat":53.2617626,"lon":-2.7545733,"type":"hamlet"},{"id":16703815,"name":"Bridge Trafford","lat":53.2337411,"lon":-2.826498,"type":"hamlet"},{"id":16737785,"name":"Sharpness","lat":51.71663,"lon":-2.470734,"type":"village"},{"id":16802021,"name":"Falfield","lat":51.6364937,"lon":-2.4594378,"type":"village"},{"id":16838631,"name":"Kingswood","lat":51.6243661,"lon":-2.3679008,"type":"village"},{"id":16890040,"name":"Arlesey","lat":52.0076781,"lon":-0.2617753,"type":"town"},{"id":16890268,"name":"Stotfold","lat":52.0122985,"lon":-0.2297228,"type":"village"},{"id":16897613,"name":"Stone","lat":51.6572842,"lon":-2.4579673,"type":"village"},{"id":16934318,"name":"Tytherington","lat":51.5927747,"lon":-2.4754858,"type":"village"},{"id":16953129,"name":"Tockington","lat":51.5748025,"lon":-2.567185,"type":"village"},{"id":17054210,"name":"Tattingstone White Horse","lat":52.0019476,"lon":1.1114135,"type":"village"},{"id":17054257,"name":"Tattingstone","lat":51.991821,"lon":1.1100039,"type":"village"},{"id":17067290,"name":"Alton","lat":51.1489036,"lon":-0.9757677,"type":"town"},{"id":17067291,"name":"Beech","lat":51.1428832,"lon":-1.0134912,"type":"village"},{"id":17068792,"name":"Lasham","lat":51.1772006,"lon":-1.0357622,"type":"village"},{"id":17070625,"name":"Hasguard Cross","lat":51.7542446,"lon":-5.1165496,"type":"hamlet"},{"id":17070637,"name":"Rosepool","lat":51.7617503,"lon":-5.0990955,"type":"hamlet"},{"id":17071007,"name":"Stutton","lat":51.9706229,"lon":1.1280461,"type":"village"},{"id":17073304,"name":"Ratford Bridge","lat":51.7736099,"lon":-5.0458113,"type":"hamlet"},{"id":17073331,"name":"Dreenhill","lat":51.7875062,"lon":-5.018305,"type":"hamlet"},{"id":17119312,"name":"Wolf's Castle","lat":51.8985241,"lon":-4.9706988,"type":"village"},{"id":17131026,"name":"Wivelrod","lat":51.141205,"lon":-1.0358753,"type":"hamlet"},{"id":17163162,"name":"Bretton","lat":53.1675439,"lon":-2.9663707,"type":"village"},{"id":17163204,"name":"Dobshill","lat":53.1650044,"lon":-3.0392167,"type":"hamlet"},{"id":17163240,"name":"Ewloe","lat":53.1874382,"lon":-3.0505097,"type":"village"},{"id":17286415,"name":"Norley","lat":53.2484875,"lon":-2.6427094,"type":"village"},{"id":17409843,"name":"Warrington","lat":53.3899497,"lon":-2.5943178,"type":"town"},{"id":17502806,"name":"Wappenham","lat":52.1072486,"lon":-1.0876578,"type":"village"},{"id":17504115,"name":"Slapton","lat":52.1158623,"lon":-1.0642589,"type":"village"},{"id":17511394,"name":"Littlehampton","lat":50.8095801,"lon":-0.5424424,"type":"town"},{"id":17564435,"name":"Burnham","lat":51.5362073,"lon":-0.6571411,"type":"village"},{"id":17579324,"name":"Bradley","lat":53.2887975,"lon":-2.7029338,"type":"hamlet"},{"id":17580306,"name":"Overton","lat":53.2895891,"lon":-2.7189548,"type":"village"},{"id":17580471,"name":"Frodsham","lat":53.2963636,"lon":-2.7114845,"type":"town"},{"id":17708627,"name":"Fulbourn","lat":52.1828971,"lon":0.2198896,"type":"village"},{"id":17721995,"name":"Portsmouth","lat":50.800031,"lon":-1.0906023,"type":"city"},{"id":17722528,"name":"Horsham","lat":51.0630273,"lon":-0.3295028,"type":"town"},{"id":17722928,"name":"Crawley","lat":51.1103444,"lon":-0.1801094,"type":"town"},{"id":17723703,"name":"Haywards Heath","lat":50.9999616,"lon":-0.1049747,"type":"town"},{"id":17723728,"name":"Burgess Hill","lat":50.9575365,"lon":-0.1332853,"type":"town"},{"id":17723860,"name":"Uckfield","lat":50.9709535,"lon":0.0963279,"type":"town"},{"id":17724137,"name":"Lewes","lat":50.8741265,"lon":0.0121129,"type":"town"},{"id":17724170,"name":"Newhaven","lat":50.7945315,"lon":0.0483875,"type":"town"},{"id":17725071,"name":"East Grinstead","lat":51.1285649,"lon":-0.0142988,"type":"town"},{"id":17725410,"name":"Eastbourne","lat":50.7664372,"lon":0.2781546,"type":"town"},{"id":17774569,"name":"Crowborough","lat":51.0590028,"lon":0.1635863,"type":"town"},{"id":17776697,"name":"Royal Tunbridge Wells","lat":51.1371483,"lon":0.2673446,"type":"town"},{"id":17800018,"name":"Chastleton","lat":51.9599665,"lon":-1.6409204,"type":"hamlet"},{"id":17806976,"name":"Ickleford","lat":51.9710198,"lon":-0.2800954,"type":"village"},{"id":17808571,"name":"Old Newton","lat":52.2245535,"lon":1.003973,"type":"village"},{"id":17857184,"name":"Bourton-on-the-Water","lat":51.8840725,"lon":-1.7573118,"type":"village"},{"id":17857206,"name":"Fosse Cross","lat":51.7838332,"lon":-1.9021239,"type":"village"},{"id":17857208,"name":"Coln Rogers","lat":51.785611,"lon":-1.875323,"type":"village"},{"id":17857209,"name":"Andoversford","lat":51.875745,"lon":-1.9664454,"type":"village"},{"id":17857512,"name":"Gloucester","lat":51.8653705,"lon":-2.2458192,"type":"city"},{"id":17857979,"name":"Cheltenham","lat":51.8995685,"lon":-2.0711559,"type":"town"},{"id":17857981,"name":"Upper Swell","lat":51.9398252,"lon":-1.7444423,"type":"village"},{"id":17858426,"name":"Bournemouth","lat":50.7201514,"lon":-1.8799118,"type":"town"},{"id":17858754,"name":"Poole","lat":50.7179472,"lon":-1.981521,"type":"town"},{"id":17859918,"name":"Coventry","lat":52.4081812,"lon":-1.510477,"type":"city"},{"id":17861291,"name":"Birmingham","lat":52.4796992,"lon":-1.9026911,"type":"city"},{"id":17898859,"name":"Edinburgh","lat":55.9533456,"lon":-3.1883749,"type":"city"},{"id":17899654,"name":"Ringwood","lat":50.8469344,"lon":-1.7914166,"type":"town"},{"id":17901790,"name":"Verwood","lat":50.8801244,"lon":-1.8752368,"type":"town"},{"id":17901981,"name":"Knowlton","lat":50.8896117,"lon":-1.9680391,"type":"hamlet"},{"id":17901984,"name":"Wimborne St Giles","lat":50.9074318,"lon":-1.959959,"type":"village"},{"id":17915906,"name":"Deal","lat":51.2239544,"lon":1.4027344,"type":"town"},{"id":17915928,"name":"Ramsgate","lat":51.3334726,"lon":1.4196476,"type":"town"},{"id":17915976,"name":"Chatham","lat":51.3819167,"lon":0.526559,"type":"town"},{"id":17915977,"name":"Gillingham","lat":51.3871701,"lon":0.5461611,"type":"town"},{"id":17916174,"name":"Canterbury","lat":51.2800275,"lon":1.0802533,"type":"city"},{"id":17917137,"name":"Fort William","lat":56.8178257,"lon":-5.1109516,"type":"town"},{"id":17921925,"name":"Gomshall","lat":51.2192594,"lon":-0.4495756,"type":"village"},{"id":17945834,"name":"Elsfield","lat":51.7863053,"lon":-1.2174286,"type":"village"},{"id":17945850,"name":"Great Yarmouth","lat":52.6071742,"lon":1.7314845,"type":"town"},{"id":17945929,"name":"Forest Hill","lat":51.7656153,"lon":-1.1536695,"type":"hamlet"},{"id":17946103,"name":"Stanton St John","lat":51.7791701,"lon":-1.1630101,"type":"village"},{"id":17946952,"name":"Holton","lat":51.7558489,"lon":-1.1293417,"type":"hamlet"},{"id":17946953,"name":"Wheatley","lat":51.7472215,"lon":-1.1373974,"type":"village"},{"id":17951258,"name":"Peterborough","lat":52.5725769,"lon":-0.2427336,"type":"city"},{"id":17986274,"name":"Plymouth","lat":50.3714122,"lon":-4.1424451,"type":"city"},{"id":18007599,"name":"Hoddesdon","lat":51.7616709,"lon":-0.0112898,"type":"town"},{"id":18009095,"name":"Eaton","lat":53.1659609,"lon":-2.6389284,"type":"village"},{"id":18009959,"name":"Exeter","lat":50.7256138,"lon":-3.5269209,"type":"city"},{"id":18012187,"name":"Bridgwater","lat":51.1283378,"lon":-3.0037046,"type":"town"},{"id":18019905,"name":"Torquay","lat":50.4652392,"lon":-3.5211361,"type":"town"},{"id":18024342,"name":"Dorchester","lat":50.7132064,"lon":-2.4371229,"type":"town"},{"id":18085924,"name":"Buxton","lat":53.2593422,"lon":-1.9100768,"type":"town"},{"id":18086345,"name":"Castleton","lat":53.3430786,"lon":-1.7746203,"type":"village"},{"id":18086507,"name":"Combs","lat":53.304297,"lon":-1.9389563,"type":"village"},{"id":18167377,"name":"Bearsden","lat":55.920461,"lon":-4.3332046,"type":"town"},{"id":18167379,"name":"Milngavie","lat":55.9410791,"lon":-4.3178027,"type":"town"},{"id":18169205,"name":"Balmore","lat":55.9346593,"lon":-4.2389935,"type":"village"},{"id":18169206,"name":"Bardowie","lat":55.933164,"lon":-4.2687363,"type":"hamlet"},{"id":18236979,"name":"Sunningwell","lat":51.7010794,"lon":-1.2840306,"type":"village"},{"id":18238341,"name":"Teversham","lat":52.2033413,"lon":0.1898739,"type":"village"},{"id":18253732,"name":"St Austell","lat":50.33814,"lon":-4.794184,"type":"town"},{"id":18281010,"name":"Highworth","lat":51.6305435,"lon":-1.7112996,"type":"town"},{"id":18281011,"name":"Broad Blunsdon","lat":51.6137571,"lon":-1.7846302,"type":"village"},{"id":18288057,"name":"Seaton","lat":52.5753823,"lon":-0.6720358,"type":"village"},{"id":18288393,"name":"Thorpe by Water","lat":52.5590987,"lon":-0.6838787,"type":"village"},{"id":18288394,"name":"Lyddington","lat":52.5654164,"lon":-0.7119879,"type":"village"},{"id":18288441,"name":"Bisbrooke","lat":52.5876117,"lon":-0.6942256,"type":"village"},{"id":18288457,"name":"Stoke Dry","lat":52.5637425,"lon":-0.7385683,"type":"village"},{"id":18288458,"name":"Caldecott","lat":52.5334194,"lon":-0.7210543,"type":"village"},{"id":18305906,"name":"Yate","lat":51.5403113,"lon":-2.4134281,"type":"town"},{"id":18305907,"name":"Chipping Sodbury","lat":51.5382179,"lon":-2.392653,"type":"town"},{"id":18308794,"name":"Colden Common","lat":50.9988195,"lon":-1.3171432,"type":"village"},{"id":18309691,"name":"Wickwar","lat":51.5942561,"lon":-2.3990509,"type":"village"},{"id":18311871,"name":"Wakerley","lat":52.584642,"lon":-0.5934329,"type":"village"},{"id":18311872,"name":"Barrowden","lat":52.5913531,"lon":-0.6020109,"type":"village"},{"id":18311971,"name":"Glaston","lat":52.5947931,"lon":-0.6768736,"type":"village"},{"id":18311974,"name":"Harringworth","lat":52.5659688,"lon":-0.6489439,"type":"village"},{"id":18312504,"name":"Cold Overton","lat":52.6836203,"lon":-0.8018819,"type":"village"},{"id":18313277,"name":"Marchwood","lat":50.8913803,"lon":-1.4541504,"type":"village"},{"id":18316256,"name":"Langham","lat":52.6911319,"lon":-0.7535994,"type":"village"},{"id":18327458,"name":"Helston","lat":50.1016731,"lon":-5.273032,"type":"town"},{"id":18336960,"name":"St Ives","lat":50.2149064,"lon":-5.4795083,"type":"town"},{"id":18337211,"name":"Tinwell","lat":52.6461832,"lon":-0.5144489,"type":"village"},{"id":18339022,"name":"Petworth","lat":50.9862857,"lon":-0.6101088,"type":"town"},{"id":18341099,"name":"Milton-under-Wychwood","lat":51.8626854,"lon":-1.616782,"type":"village"},{"id":18341502,"name":"Barleythorpe","lat":52.6786503,"lon":-0.7457015,"type":"village"},{"id":18347922,"name":"Egleton","lat":52.6572578,"lon":-0.7064969,"type":"village"},{"id":18348891,"name":"Braunston in Rutland","lat":52.6519674,"lon":-0.7692973,"type":"village"},{"id":18352150,"name":"Fen Ditton","lat":52.2208909,"lon":0.1729928,"type":"village"},{"id":18375254,"name":"Tixover","lat":52.5927969,"lon":-0.5616759,"type":"hamlet"},{"id":18375340,"name":"Collyweston","lat":52.613792,"lon":-0.529687,"type":"village"},{"id":18375341,"name":"Ketton","lat":52.6277235,"lon":-0.5521637,"type":"village"},{"id":18377634,"name":"Lyndon","lat":52.6295264,"lon":-0.6583203,"type":"village"},{"id":18379752,"name":"Wing","lat":52.6180039,"lon":-0.6847683,"type":"village"},{"id":18459236,"name":"Exton","lat":52.6910238,"lon":-0.6312744,"type":"village"},{"id":18466535,"name":"Ayston","lat":52.6003286,"lon":-0.7306331,"type":"village"},{"id":18476092,"name":"Cotebrook","lat":53.1853888,"lon":-2.6415339,"type":"hamlet"},{"id":18485879,"name":"Newquay","lat":50.4134414,"lon":-5.0848836,"type":"town"},{"id":18485925,"name":"Severn Beach","lat":51.5618116,"lon":-2.6619317,"type":"village"},{"id":18578704,"name":"Barnstaple","lat":51.0804057,"lon":-4.0600467,"type":"town"},{"id":18660086,"name":"Morcott","lat":52.5961766,"lon":-0.6368195,"type":"village"},{"id":18660323,"name":"Teigh","lat":52.7351595,"lon":-0.7201314,"type":"village"},{"id":18667752,"name":"Manley","lat":53.2417484,"lon":-2.7344372,"type":"village"},{"id":18667753,"name":"Mouldsworth","lat":53.2331538,"lon":-2.7394633,"type":"village"},{"id":18668591,"name":"Thornbury","lat":51.6078094,"lon":-2.5254942,"type":"town"},{"id":18675412,"name":"Stopham","lat":50.9612354,"lon":-0.539403,"type":"village"},{"id":18676047,"name":"Pulborough","lat":50.9575636,"lon":-0.5097654,"type":"village"},{"id":18712963,"name":"Castle Bytham","lat":52.754958,"lon":-0.5362353,"type":"village"},{"id":18712964,"name":"Holywell","lat":52.7346168,"lon":-0.51837,"type":"hamlet"},{"id":18716823,"name":"Clipsham","lat":52.7347857,"lon":-0.5652783,"type":"village"},{"id":18716856,"name":"Stretton","lat":52.7320487,"lon":-0.5957881,"type":"village"},{"id":18836598,"name":"Great Casterton","lat":52.6704334,"lon":-0.5216589,"type":"village"},{"id":18845933,"name":"Belmesthorpe","lat":52.679778,"lon":-0.4585131,"type":"village"},{"id":18851350,"name":"Little Casterton","lat":52.6765759,"lon":-0.4947769,"type":"village"},{"id":18854280,"name":"Wisborough Green","lat":51.0239389,"lon":-0.5048618,"type":"village"},{"id":18865696,"name":"Enfield","lat":51.6520851,"lon":-0.0810175,"type":"town"},{"id":18899044,"name":"Preston","lat":52.6126362,"lon":-0.7142833,"type":"village"},{"id":18958294,"name":"Carlby","lat":52.7139694,"lon":-0.4473501,"type":"village"},{"id":18958296,"name":"Essendine","lat":52.7014939,"lon":-0.4523179,"type":"village"},{"id":19022660,"name":"Manton","lat":52.632035,"lon":-0.7001246,"type":"village"},{"id":19042301,"name":"Byworth","lat":50.9804939,"lon":-0.5949942,"type":"hamlet"},{"id":19043152,"name":"Ascott","lat":52.0096259,"lon":-1.5318584,"type":"hamlet"},{"id":19049662,"name":"Midhurst","lat":50.9841854,"lon":-0.74043,"type":"town"},{"id":19061776,"name":"Aberfoyle","lat":56.1785196,"lon":-4.3826749,"type":"village"},{"id":19454649,"name":"Olveston","lat":51.579796,"lon":-2.5761901,"type":"village"},{"id":19683406,"name":"Handley","lat":53.114942,"lon":-2.7972693,"type":"hamlet"},{"id":19683411,"name":"Milton Green","lat":53.1218868,"lon":-2.8052118,"type":"hamlet"},{"id":19683428,"name":"Newton-by-Tattenhall","lat":53.1347125,"lon":-2.760947,"type":"hamlet"},{"id":19741383,"name":"Letterston","lat":51.9278455,"lon":-4.9916123,"type":"village"},{"id":19779079,"name":"Castle Morris","lat":51.9430632,"lon":-5.0532695,"type":"hamlet"},{"id":19779153,"name":"Welsh Hook","lat":51.9097117,"lon":-5.0052122,"type":"hamlet"},{"id":19793890,"name":"Wyton","lat":52.3346441,"lon":-0.1302088,"type":"village"},{"id":19793891,"name":"Houghton","lat":52.330324,"lon":-0.1150244,"type":"village"},{"id":19809181,"name":"Brimaston","lat":51.8861921,"lon":-5.0084894,"type":"hamlet"},{"id":19809205,"name":"Mountain Water","lat":51.8753911,"lon":-5.0204661,"type":"hamlet"},{"id":19809219,"name":"Folly","lat":51.8468619,"lon":-5.0100984,"type":"hamlet"},{"id":19809382,"name":"Wimborne Minster","lat":50.7995189,"lon":-1.987339,"type":"town"},{"id":19809384,"name":"Clapgate","lat":50.8226246,"lon":-1.9859707,"type":"hamlet"},{"id":19820601,"name":"Horton","lat":50.8668552,"lon":-1.9581567,"type":"village"},{"id":19820602,"name":"Chalbury","lat":50.8605908,"lon":-1.9715835,"type":"hamlet"},{"id":19820613,"name":"Chalbury Common","lat":50.8604042,"lon":-1.9647184,"type":"hamlet"},{"id":19821555,"name":"Merley","lat":50.7824034,"lon":-1.9645017,"type":"village"},{"id":19826381,"name":"Hinton Martell","lat":50.8553091,"lon":-1.9837971,"type":"village"},{"id":19826508,"name":"Holt Wood","lat":50.8550621,"lon":-1.9603116,"type":"village"},{"id":19827255,"name":"Uppington","lat":50.8558901,"lon":-1.9726813,"type":"hamlet"},{"id":19828523,"name":"Lodge Hill","lat":50.8424976,"lon":-1.9620922,"type":"hamlet"},{"id":19828524,"name":"Holt","lat":50.8352898,"lon":-1.9597078,"type":"village"},{"id":19828525,"name":"Gaunts Common","lat":50.8478464,"lon":-1.9697193,"type":"village"},{"id":19828948,"name":"Ashley Heath","lat":50.8410811,"lon":-1.843407,"type":"village"},{"id":19828975,"name":"Three Legged Cross","lat":50.851413,"lon":-1.8858536,"type":"village"},{"id":19829593,"name":"Lower Row","lat":50.8414777,"lon":-1.9411751,"type":"hamlet"},{"id":19829594,"name":"Higher Row","lat":50.8393485,"lon":-1.9348644,"type":"hamlet"},{"id":19829760,"name":"Wigbeth","lat":50.8634282,"lon":-1.9362049,"type":"hamlet"},{"id":19829914,"name":"Holt Heath","lat":50.8412301,"lon":-1.9155285,"type":"hamlet"},{"id":19830086,"name":"Mannington","lat":50.8528342,"lon":-1.9128107,"type":"hamlet"},{"id":19830607,"name":"Ferndown","lat":50.8022391,"lon":-1.8905903,"type":"town"},{"id":19830636,"name":"West Moors","lat":50.824992,"lon":-1.8884165,"type":"village"},{"id":20100185,"name":"Hayscastle Cross","lat":51.8862135,"lon":-5.0341828,"type":"village"},{"id":20100208,"name":"Hayscastle","lat":51.8900743,"lon":-5.0586393,"type":"hamlet"},{"id":20104995,"name":"Histon","lat":52.2525103,"lon":0.1080641,"type":"village"},{"id":20105101,"name":"Impington","lat":52.2493091,"lon":0.1138256,"type":"village"},{"id":20251020,"name":"Wanlip","lat":52.6918296,"lon":-1.1126465,"type":"village"},{"id":20256316,"name":"Llanfynydd","lat":53.1034201,"lon":-3.0801332,"type":"village"},{"id":20273371,"name":"Pont-Y-Bodkin","lat":53.1254733,"lon":-3.0891149,"type":"village"},{"id":20296160,"name":"Croes-goch","lat":51.9284756,"lon":-5.1589721,"type":"village"},{"id":20307365,"name":"Cromhall","lat":51.6130656,"lon":-2.4398623,"type":"village"},{"id":20317125,"name":"Martletwy","lat":51.7606889,"lon":-4.8476384,"type":"hamlet"},{"id":20455353,"name":"Milton Keynes","lat":52.0406502,"lon":-0.7594092,"type":"city"},{"id":20458908,"name":"Brill","lat":51.8188248,"lon":-1.0494807,"type":"village"},{"id":20459403,"name":"Wotton Underwood","lat":51.8382703,"lon":-1.0038598,"type":"village"},{"id":20459789,"name":"Ashendon","lat":51.8228083,"lon":-0.9770245,"type":"village"},{"id":20460236,"name":"Westcott","lat":51.8483895,"lon":-0.9600859,"type":"village"},{"id":20461099,"name":"Upper Winchendon","lat":51.8210247,"lon":-0.9206045,"type":"village"},{"id":20461599,"name":"Chearsley","lat":51.7894856,"lon":-0.9597017,"type":"village"},{"id":20461753,"name":"Long Crendon","lat":51.7741526,"lon":-0.9994988,"type":"village"},{"id":20462034,"name":"Thame","lat":51.7482733,"lon":-0.9781805,"type":"town"},{"id":20462740,"name":"Clarbeston","lat":51.855637,"lon":-4.8364793,"type":"hamlet"},{"id":20463786,"name":"Waddesdon","lat":51.8456176,"lon":-0.9267193,"type":"village"},{"id":20464801,"name":"Bletherston","lat":51.85684,"lon":-4.8022555,"type":"hamlet"},{"id":20484751,"name":"Whissendine","lat":52.7194823,"lon":-0.7747755,"type":"village"},{"id":20489668,"name":"Leesthorpe","lat":52.7147425,"lon":-0.8310391,"type":"hamlet"},{"id":20612889,"name":"Coddington","lat":53.093255,"lon":-2.818239,"type":"hamlet"},{"id":20612938,"name":"Barton","lat":53.0825746,"lon":-2.8244475,"type":"village"},{"id":20613021,"name":"Aldersey Green","lat":53.1064598,"lon":-2.8061247,"type":"hamlet"},{"id":20613068,"name":"Chowley Oak","lat":53.1012834,"lon":-2.7820678,"type":"hamlet"},{"id":20625176,"name":"Alcester","lat":52.2150202,"lon":-1.8695764,"type":"town"},{"id":20626519,"name":"Wolfsdale","lat":51.8539772,"lon":-5.0031927,"type":"hamlet"},{"id":20626547,"name":"Leweston","lat":51.8627023,"lon":-4.9926437,"type":"hamlet"},{"id":20626951,"name":"Pelcomb Cross","lat":51.8216412,"lon":-5.0205806,"type":"hamlet"},{"id":20628349,"name":"Hornsea","lat":53.9134596,"lon":-0.1689412,"type":"town"},{"id":20628524,"name":"Bridlington","lat":54.082242,"lon":-0.1908647,"type":"town"},{"id":20629613,"name":"Scarborough","lat":54.2820009,"lon":-0.4011868,"type":"town"},{"id":20632664,"name":"Carden","lat":53.0710444,"lon":-2.796606,"type":"hamlet"},{"id":20632675,"name":"Clutton","lat":53.0851904,"lon":-2.8017785,"type":"village"},{"id":20632810,"name":"Tilston","lat":53.0558918,"lon":-2.808973,"type":"village"},{"id":20674690,"name":"Rhos","lat":51.7921366,"lon":-4.890846,"type":"hamlet"},{"id":20675457,"name":"Uzmaston","lat":51.7915123,"lon":-4.9448244,"type":"hamlet"},{"id":20693945,"name":"Beckley","lat":51.7970275,"lon":-1.1854397,"type":"village"},{"id":20694447,"name":"Shipton by Beningbrough","lat":54.0223137,"lon":-1.1576831,"type":"village"},{"id":20694474,"name":"Easingwold","lat":54.1216415,"lon":-1.1928126,"type":"town"},{"id":20698650,"name":"Wistow","lat":52.4100175,"lon":-0.121366,"type":"village"},{"id":20841537,"name":"Kesgrave","lat":52.0630898,"lon":1.2371279,"type":"town"},{"id":20849257,"name":"Pwll-trap","lat":51.8217312,"lon":-4.5153578,"type":"village"},{"id":20849392,"name":"Banc-y-felin","lat":51.8350745,"lon":-4.435001,"type":"village"},{"id":20910685,"name":"Newcastle upon Tyne","lat":54.9738474,"lon":-1.6131572,"type":"city"},{"id":20912025,"name":"Tortworth","lat":51.6383725,"lon":-2.4297505,"type":"village"},{"id":20912026,"name":"Charfield","lat":51.6275074,"lon":-2.40176,"type":"village"},{"id":20913294,"name":"York","lat":53.9590555,"lon":-1.0815361,"type":"city"},{"id":20913788,"name":"Alnmouth","lat":55.3883231,"lon":-1.6126304,"type":"village"},{"id":20914264,"name":"Rangeworthy","lat":51.5696741,"lon":-2.4457648,"type":"village"},{"id":20914265,"name":"Iron Acton","lat":51.5501745,"lon":-2.4623859,"type":"village"},{"id":20916260,"name":"Uffington","lat":51.6009313,"lon":-1.5626067,"type":"village"},{"id":20916454,"name":"Fernham","lat":51.624992,"lon":-1.5788684,"type":"village"},{"id":20916455,"name":"Shellingford","lat":51.6405767,"lon":-1.5428033,"type":"village"},{"id":20918876,"name":"Hatford","lat":51.6510248,"lon":-1.5121633,"type":"village"},{"id":20919015,"name":"Alnwick","lat":55.4133398,"lon":-1.7072354,"type":"town"},{"id":20919016,"name":"Holy Island","lat":55.6710152,"lon":-1.8010066,"type":"village"},{"id":20919047,"name":"Bishop's Stortford","lat":51.8676279,"lon":0.1631961,"type":"town"},{"id":20919048,"name":"Morpeth","lat":55.1675437,"lon":-1.6907444,"type":"town"},{"id":20923539,"name":"Whitby","lat":54.4866526,"lon":-0.6135315,"type":"town"},{"id":20926195,"name":"Southend","lat":51.4599369,"lon":-1.7169303,"type":"hamlet"},{"id":20926196,"name":"Landford","lat":50.9700788,"lon":-1.6363792,"type":"village"},{"id":20926199,"name":"Manningford Bohune","lat":51.3182642,"lon":-1.8041119,"type":"village"},{"id":20926201,"name":"New Town","lat":51.2560133,"lon":-1.7999833,"type":"hamlet"},{"id":20926205,"name":"West Chisenbury","lat":51.2746449,"lon":-1.8053811,"type":"hamlet"},{"id":20926220,"name":"North Newnton","lat":51.3176218,"lon":-1.8176513,"type":"hamlet"},{"id":20926223,"name":"Enford","lat":51.2612749,"lon":-1.8022616,"type":"village"},{"id":20930889,"name":"Woodley","lat":51.4530441,"lon":-0.9046899,"type":"town"},{"id":20934443,"name":"Bibstone","lat":51.6171763,"lon":-2.4365819,"type":"hamlet"},{"id":20934444,"name":"Townwell","lat":51.6141937,"lon":-2.4383868,"type":"hamlet"},{"id":20934445,"name":"Heath End","lat":51.6049761,"lon":-2.4388344,"type":"hamlet"},{"id":20934446,"name":"Milbury Heath","lat":51.6090618,"lon":-2.4853332,"type":"village"},{"id":20934769,"name":"Elmswell","lat":52.2356789,"lon":0.911281,"type":"village"},{"id":20936551,"name":"Wotton-under-Edge","lat":51.6378241,"lon":-2.3547251,"type":"town"},{"id":20936853,"name":"Avening Green","lat":51.6432108,"lon":-2.4212564,"type":"hamlet"},{"id":20936926,"name":"Hillesley","lat":51.6060098,"lon":-2.3349837,"type":"village"},{"id":20939132,"name":"Damery","lat":51.6461702,"lon":-2.4257106,"type":"hamlet"},{"id":20940471,"name":"Otley","lat":53.9055083,"lon":-1.6938874,"type":"town"},{"id":20940506,"name":"Menston","lat":53.8896826,"lon":-1.7371032,"type":"village"},{"id":20940507,"name":"Burley-in-Wharfedale","lat":53.9129949,"lon":-1.7500691,"type":"village"},{"id":20940728,"name":"Ilkley","lat":53.9257254,"lon":-1.824441,"type":"town"},{"id":20940957,"name":"Denton","lat":53.9367932,"lon":-1.7833462,"type":"village"},{"id":20941138,"name":"Addingham","lat":53.9445203,"lon":-1.8852854,"type":"village"},{"id":20941164,"name":"Kettlewell","lat":54.1466579,"lon":-2.0492297,"type":"village"},{"id":20941451,"name":"Alrewas","lat":52.7322867,"lon":-1.7494608,"type":"village"},{"id":20942935,"name":"Filton","lat":51.5117457,"lon":-2.5720005,"type":"town"},{"id":20942936,"name":"Stoke Gifford","lat":51.5160094,"lon":-2.5444067,"type":"village"},{"id":20942939,"name":"Broughton Astley","lat":52.5278282,"lon":-1.2199593,"type":"village"},{"id":20942940,"name":"Cosby","lat":52.551051,"lon":-1.1926746,"type":"village"},{"id":20949228,"name":"Carlisle","lat":54.8948478,"lon":-2.9362311,"type":"city"},{"id":20953149,"name":"Little Bristol","lat":51.6203537,"lon":-2.3950304,"type":"hamlet"},{"id":20953150,"name":"Churchend","lat":51.6178364,"lon":-2.4069159,"type":"hamlet"},{"id":20954091,"name":"Barrow-in-Furness","lat":54.1113351,"lon":-3.2289494,"type":"town"},{"id":20958718,"name":"Hartlepool","lat":54.6857276,"lon":-1.2093696,"type":"town"},{"id":20958730,"name":"Seaham","lat":54.8372106,"lon":-1.3355612,"type":"town"},{"id":20959520,"name":"Sunderland","lat":54.9058512,"lon":-1.3828727,"type":"city"},{"id":20960034,"name":"South Shields","lat":54.9987414,"lon":-1.4321848,"type":"town"},{"id":20960155,"name":"Blyth","lat":55.1270903,"lon":-1.5099726,"type":"town"},{"id":20960484,"name":"Six Mile Bottom","lat":52.1883582,"lon":0.3084701,"type":"village"},{"id":20960563,"name":"Great Wilbraham","lat":52.194124,"lon":0.2651614,"type":"village"},{"id":20960575,"name":"Little Wilbraham","lat":52.2034886,"lon":0.2539686,"type":"village"},{"id":20962675,"name":"Barnes","lat":51.4737383,"lon":-0.2492849,"type":"town"},{"id":20962688,"name":"Berwick-upon-Tweed","lat":55.7692442,"lon":-2.0026472,"type":"town"},{"id":20964856,"name":"Ampfield","lat":51.0073103,"lon":-1.4298101,"type":"village"},{"id":20965348,"name":"Cattawade","lat":51.9580471,"lon":1.0589959,"type":"village"},{"id":20967120,"name":"Stuston","lat":52.3589272,"lon":1.1328511,"type":"village"},{"id":20967171,"name":"Scotby","lat":54.8876181,"lon":-2.8767283,"type":"village"},{"id":20967172,"name":"Wetheral","lat":54.8819954,"lon":-2.835022,"type":"village"},{"id":20967224,"name":"Great Corby","lat":54.8813838,"lon":-2.8232718,"type":"village"},{"id":20967225,"name":"How","lat":54.900381,"lon":-2.7717874,"type":"village"},{"id":20967226,"name":"Hayton","lat":54.9123065,"lon":-2.7693907,"type":"village"},{"id":20967228,"name":"Kirkhouse","lat":54.9312331,"lon":-2.6750412,"type":"hamlet"},{"id":20967229,"name":"Gilsland","lat":54.9920209,"lon":-2.5729406,"type":"village"},{"id":20967405,"name":"Greenhead","lat":54.9809657,"lon":-2.531131,"type":"village"},{"id":20967406,"name":"Haltwhistle","lat":54.9705304,"lon":-2.4582171,"type":"town"},{"id":20967407,"name":"Bardon Mill","lat":54.9776,"lon":-2.349535,"type":"village"},{"id":20967408,"name":"Haydon Bridge","lat":54.9728368,"lon":-2.2449558,"type":"village"},{"id":20967409,"name":"Fourstones","lat":55.0063359,"lon":-2.1702291,"type":"village"},{"id":20967410,"name":"Newbrough","lat":55.005327,"lon":-2.1971515,"type":"village"},{"id":20968151,"name":"Warden","lat":54.9931535,"lon":-2.137556,"type":"village"},{"id":20968543,"name":"Workington","lat":54.64338,"lon":-3.5453529,"type":"town"},{"id":20971091,"name":"Armathwaite","lat":54.8073519,"lon":-2.7699517,"type":"village"},{"id":20971094,"name":"Cambridge","lat":52.2055314,"lon":0.1186637,"type":"city"},{"id":20971096,"name":"Langwathby","lat":54.6988501,"lon":-2.6716277,"type":"village"},{"id":20971097,"name":"Worcester","lat":52.1911849,"lon":-2.2206585,"type":"city"},{"id":20971777,"name":"Appleby-in-Westmorland","lat":54.5772273,"lon":-2.4909298,"type":"town"},{"id":20972753,"name":"Ware","lat":51.8109057,"lon":-0.0311721,"type":"town"},{"id":20972755,"name":"Harlow","lat":51.7685568,"lon":0.0949036,"type":"town"},{"id":20974333,"name":"Brandon","lat":52.4482313,"lon":0.6240803,"type":"town"},{"id":20975039,"name":"Mundford","lat":52.5093236,"lon":0.6567033,"type":"village"},{"id":20977199,"name":"Rothwell","lat":53.7493842,"lon":-1.478151,"type":"town"},{"id":20980127,"name":"Middleton","lat":52.5832442,"lon":-1.7388479,"type":"village"},{"id":20980129,"name":"Wishaw","lat":52.5482605,"lon":-1.7403231,"type":"hamlet"},{"id":20980130,"name":"Hunts Green","lat":52.5748637,"lon":-1.731282,"type":"hamlet"},{"id":20980132,"name":"Stoke End","lat":52.5714542,"lon":-1.7517071,"type":"hamlet"},{"id":20980133,"name":"Grove End","lat":52.5527216,"lon":-1.7549292,"type":"hamlet"},{"id":20980134,"name":"Over Green","lat":52.5460378,"lon":-1.7533285,"type":"hamlet"},{"id":20980308,"name":"Thimble End","lat":52.5444787,"lon":-1.7927468,"type":"hamlet"},{"id":20980309,"name":"Reddicap Heath","lat":52.5614849,"lon":-1.8002344,"type":"hamlet"},{"id":20980310,"name":"Falcon Lodge","lat":52.5654431,"lon":-1.7835279,"type":"hamlet"},{"id":20980311,"name":"Whitehouse Common","lat":52.5720288,"lon":-1.8018459,"type":"hamlet"},{"id":20980312,"name":"Little Sutton","lat":52.5864702,"lon":-1.8156741,"type":"village"},{"id":20980313,"name":"Roughley","lat":52.5899478,"lon":-1.8005673,"type":"hamlet"},{"id":20980314,"name":"Four Oaks","lat":52.5861248,"lon":-1.8359184,"type":"village"},{"id":20980315,"name":"Mere Green","lat":52.5872475,"lon":-1.8283329,"type":"village"},{"id":20980317,"name":"Gravelly Hill","lat":52.5145539,"lon":-1.8487303,"type":"village"},{"id":20980318,"name":"Walmley Ash","lat":52.5343587,"lon":-1.784782,"type":"hamlet"},{"id":20980319,"name":"Minworth","lat":52.5286205,"lon":-1.7686888,"type":"village"},{"id":20980320,"name":"Tyburn","lat":52.5206089,"lon":-1.8053711,"type":"village"},{"id":20980395,"name":"Walsall","lat":52.5847949,"lon":-1.9822687,"type":"town"},{"id":20980396,"name":"Solihull","lat":52.4130189,"lon":-1.7768935,"type":"town"},{"id":20981539,"name":"Gretna","lat":54.9953097,"lon":-3.0669404,"type":"town"},{"id":20981655,"name":"Childer Thornton","lat":53.2929328,"lon":-2.9526775,"type":"hamlet"},{"id":20981656,"name":"Hooton","lat":53.2990505,"lon":-2.9616465,"type":"hamlet"},{"id":20981696,"name":"Lockerbie","lat":55.1218578,"lon":-3.355237,"type":"town"},{"id":20981837,"name":"Marlow","lat":51.5718706,"lon":-0.7769654,"type":"town"},{"id":20982632,"name":"Royal Leamington Spa","lat":52.2913394,"lon":-1.536404,"type":"town"},{"id":20983008,"name":"Kingswood","lat":52.3430885,"lon":-1.7272827,"type":"village"},{"id":20985106,"name":"Nuneaton","lat":52.5227973,"lon":-1.4679663,"type":"town"},{"id":20987795,"name":"Porth Dinllaen","lat":52.9438343,"lon":-4.5677556,"type":"hamlet"},{"id":20992523,"name":"Watford","lat":51.6553875,"lon":-0.3957425,"type":"town"},{"id":20992546,"name":"Kings Langley","lat":51.7135573,"lon":-0.4503027,"type":"town"},{"id":20992547,"name":"Hemel Hempstead","lat":51.7511784,"lon":-0.472528,"type":"town"},{"id":20992635,"name":"Leighton Buzzard","lat":51.9165794,"lon":-0.6620551,"type":"town"},{"id":20992660,"name":"Bletchley","lat":51.9943694,"lon":-0.7325655,"type":"town"},{"id":20992709,"name":"Wolverton","lat":52.060942,"lon":-0.8118554,"type":"town"},{"id":20992713,"name":"Roade","lat":52.1587995,"lon":-0.8941362,"type":"village"},{"id":20994574,"name":"Woodgreen","lat":50.9579604,"lon":-1.7588156,"type":"village"},{"id":20995224,"name":"Northampton","lat":52.2378853,"lon":-0.8963639,"type":"town"},{"id":20995451,"name":"Church Brampton","lat":52.2863917,"lon":-0.9467397,"type":"village"},{"id":20995452,"name":"Chapel Brampton","lat":52.2904037,"lon":-0.9328002,"type":"village"},{"id":20997993,"name":"Sandleheath","lat":50.9329858,"lon":-1.8261087,"type":"village"},{"id":20997994,"name":"Rockbourne","lat":50.9640134,"lon":-1.8391663,"type":"village"},{"id":20997995,"name":"Whitsbury","lat":50.9703216,"lon":-1.818682,"type":"village"},{"id":20997997,"name":"Frogham","lat":50.9157231,"lon":-1.7570952,"type":"village"},{"id":21001348,"name":"Long Buckby","lat":52.3025587,"lon":-1.0806839,"type":"village"},{"id":21001437,"name":"Kilsby","lat":52.3349814,"lon":-1.1773932,"type":"village"},{"id":21004290,"name":"Shocklach","lat":53.0371437,"lon":-2.8387116,"type":"village"},{"id":21009415,"name":"Lover","lat":50.9798468,"lon":-1.7027192,"type":"village"},{"id":21011236,"name":"Hatchet Green","lat":50.9711132,"lon":-1.7261903,"type":"hamlet"},{"id":21015309,"name":"Old Down","lat":51.5841329,"lon":-2.5532786,"type":"village"},{"id":21019344,"name":"Bursledon","lat":50.8810858,"lon":-1.3105229,"type":"village"},{"id":21025675,"name":"Chelmsford","lat":51.7345329,"lon":0.4730532,"type":"city"},{"id":21026622,"name":"Holt","lat":53.0784893,"lon":-2.8824103,"type":"village"},{"id":21027566,"name":"Wakefield","lat":53.6829541,"lon":-1.4967286,"type":"city"},{"id":21028382,"name":"Malpas","lat":53.021809,"lon":-2.7651595,"type":"village"},{"id":21028383,"name":"Threapwood","lat":53.0048786,"lon":-2.8361939,"type":"village"},{"id":21028384,"name":"Chorlton","lat":53.0228124,"lon":-2.8120458,"type":"village"},{"id":21028385,"name":"Horton Green","lat":53.0396646,"lon":-2.8156087,"type":"village"},{"id":21028398,"name":"Crewe by Farndon","lat":53.0733444,"lon":-2.8631616,"type":"village"},{"id":21028399,"name":"Caldecott","lat":53.0567698,"lon":-2.8472709,"type":"hamlet"},{"id":21030466,"name":"Ibsley","lat":50.8837514,"lon":-1.7880622,"type":"village"},{"id":21030773,"name":"Balsham","lat":52.1326976,"lon":0.3153306,"type":"village"},{"id":21031028,"name":"Congresbury","lat":51.3720095,"lon":-2.8055631,"type":"village"},{"id":21031211,"name":"Goffs Oak","lat":51.7101911,"lon":-0.08684,"type":"village"},{"id":21031212,"name":"Cuffley","lat":51.7077794,"lon":-0.113665,"type":"village"},{"id":21034702,"name":"Gipping","lat":52.2292492,"lon":1.0304566,"type":"hamlet"},{"id":21035343,"name":"Haughley","lat":52.2213392,"lon":0.9655004,"type":"village"},{"id":21040206,"name":"Oadby","lat":52.5985281,"lon":-1.0823899,"type":"town"},{"id":21042130,"name":"Newgate Street","lat":51.7282016,"lon":-0.1183263,"type":"village"},{"id":21042299,"name":"Norton","lat":51.9935098,"lon":-0.2087396,"type":"village"},{"id":21043473,"name":"Stranraer","lat":54.9044332,"lon":-5.026204,"type":"town"},{"id":21048296,"name":"Castletown","lat":53.0529269,"lon":-2.8376068,"type":"hamlet"},{"id":21051417,"name":"Ayr","lat":55.4628044,"lon":-4.6302502,"type":"town"},{"id":21063119,"name":"Inverness","lat":57.4790124,"lon":-4.225739,"type":"city"},{"id":21063362,"name":"Aberdeen","lat":57.1482429,"lon":-2.0928095,"type":"city"},{"id":21063469,"name":"Rookley","lat":50.6550534,"lon":-1.281133,"type":"village"},{"id":21063632,"name":"Swansea","lat":51.6195955,"lon":-3.9459248,"type":"city"},{"id":21068149,"name":"Cymau","lat":53.0940563,"lon":-3.0544784,"type":"village"},{"id":21068150,"name":"Hope","lat":53.1180417,"lon":-3.0341707,"type":"village"},{"id":21068354,"name":"Treuddyn","lat":53.1153235,"lon":-3.1216008,"type":"village"},{"id":21068719,"name":"Abermorddu","lat":53.102498,"lon":-3.0324845,"type":"village"},{"id":21068720,"name":"Caergwrle","lat":53.1103777,"lon":-3.0398311,"type":"village"},{"id":21070118,"name":"Epping Green","lat":51.7439156,"lon":-0.1230852,"type":"hamlet"},{"id":21070480,"name":"Cole Green","lat":51.7875298,"lon":-0.1428754,"type":"village"},{"id":21070481,"name":"Letty Green","lat":51.7814335,"lon":-0.1373381,"type":"village"},{"id":21070482,"name":"Essendon","lat":51.7622513,"lon":-0.1537236,"type":"village"},{"id":21070483,"name":"Little Berkhamsted","lat":51.7547081,"lon":-0.1286019,"type":"village"},{"id":21075452,"name":"Waldringfield","lat":52.0516479,"lon":1.3224678,"type":"village"},{"id":21075474,"name":"Ridge","lat":51.6889993,"lon":-0.2443431,"type":"village"},{"id":21091664,"name":"Sacriston","lat":54.818461,"lon":-1.6278591,"type":"village"},{"id":21091709,"name":"Stirling","lat":56.1181242,"lon":-3.9360012,"type":"city"},{"id":21093901,"name":"Kentmere","lat":54.4303213,"lon":-2.8365516,"type":"village"},{"id":21093902,"name":"Staveley","lat":54.3784018,"lon":-2.8197952,"type":"village"},{"id":21094869,"name":"Edgebold","lat":52.6976597,"lon":-2.7862169,"type":"hamlet"},{"id":21094870,"name":"Hanwood","lat":52.6807902,"lon":-2.8247818,"type":"village"},{"id":21094872,"name":"Cruckton","lat":52.6866892,"lon":-2.8417542,"type":"village"},{"id":21096433,"name":"Cruckmeole","lat":52.6795196,"lon":-2.8414052,"type":"hamlet"},{"id":21096504,"name":"Gobowen","lat":52.8933765,"lon":-3.0353641,"type":"village"},{"id":21097439,"name":"Preston","lat":51.9085499,"lon":-0.2867678,"type":"village"},{"id":21099164,"name":"Richmond","lat":51.4613531,"lon":-0.3032767,"type":"town"},{"id":21099166,"name":"Twickenham","lat":51.4467444,"lon":-0.3281887,"type":"town"},{"id":21107621,"name":"Beaumaris","lat":53.262963,"lon":-4.0920538,"type":"town"},{"id":21112438,"name":"Pentraeth","lat":53.2816608,"lon":-4.2145365,"type":"village"},{"id":21112439,"name":"Llangefni","lat":53.2560986,"lon":-4.3114568,"type":"town"},{"id":21112794,"name":"Bramley","lat":51.3306934,"lon":-1.0610421,"type":"village"},{"id":21113513,"name":"Warnford","lat":51.0030728,"lon":-1.1120933,"type":"village"},{"id":21113584,"name":"Monks Risborough","lat":51.7342875,"lon":-0.8228185,"type":"village"},{"id":21113883,"name":"Princes Risborough","lat":51.7221664,"lon":-0.8337605,"type":"town"},{"id":21118787,"name":"High Wycombe","lat":51.6317449,"lon":-0.75596,"type":"town"},{"id":21122971,"name":"Gerrards Cross","lat":51.5878131,"lon":-0.5537126,"type":"town"},{"id":21123073,"name":"Denham","lat":51.5729922,"lon":-0.4998008,"type":"village"},{"id":21136971,"name":"Potcote","lat":52.1686945,"lon":-1.0392332,"type":"hamlet"},{"id":21136972,"name":"Potcote Farm","lat":52.1606084,"lon":-1.0334372,"type":"hamlet"},{"id":21137940,"name":"Wendover","lat":51.7676884,"lon":-0.7443215,"type":"town"},{"id":21137989,"name":"Great Missenden","lat":51.7046508,"lon":-0.7086592,"type":"town"},{"id":21139877,"name":"Rickmansworth","lat":51.6390009,"lon":-0.4718406,"type":"town"},{"id":21141572,"name":"Tamworth","lat":52.6345819,"lon":-1.6948438,"type":"town"},{"id":21141604,"name":"Lichfield","lat":52.6843696,"lon":-1.8275286,"type":"city"},{"id":21141608,"name":"Rugeley","lat":52.7589402,"lon":-1.9362042,"type":"town"},{"id":21142845,"name":"Hednesford","lat":52.7113843,"lon":-2.0025384,"type":"town"},{"id":21143528,"name":"Stone","lat":52.9033037,"lon":-2.1477653,"type":"town"},{"id":21150200,"name":"Sandford-on-Thames","lat":51.7113917,"lon":-1.2283725,"type":"village"},{"id":21180191,"name":"Bramfield","lat":51.8247274,"lon":-0.1260695,"type":"village"},{"id":21180214,"name":"Stapleford","lat":51.8370864,"lon":-0.0998609,"type":"village"},{"id":21181736,"name":"Durham","lat":54.7770139,"lon":-1.5756205,"type":"city"},{"id":21183238,"name":"Alsager","lat":53.0960614,"lon":-2.3046307,"type":"town"},{"id":21230257,"name":"Edale","lat":53.3676409,"lon":-1.8162128,"type":"village"},{"id":21238325,"name":"Datchworth Green","lat":51.8484999,"lon":-0.1604293,"type":"village"},{"id":21238478,"name":"Watton-at-Stone","lat":51.8585119,"lon":-0.1165373,"type":"village"},{"id":21238548,"name":"Poyston Cross","lat":51.837799,"lon":-4.9347439,"type":"hamlet"},{"id":21238595,"name":"Winchcombe","lat":51.9529872,"lon":-1.9654862,"type":"town"},{"id":21257254,"name":"Tipton","lat":52.5290396,"lon":-2.0693747,"type":"town"},{"id":21260216,"name":"Littleworth","lat":52.1476129,"lon":-1.0206716,"type":"hamlet"},{"id":21260383,"name":"Milton","lat":52.2422961,"lon":0.1604726,"type":"village"},{"id":21261191,"name":"Frampton Cotterell","lat":51.5336164,"lon":-2.4756348,"type":"village"},{"id":21261192,"name":"Coalpit Heath","lat":51.5264358,"lon":-2.4731302,"type":"village"},{"id":21261193,"name":"Westerleigh","lat":51.5165414,"lon":-2.4346352,"type":"village"},{"id":21261194,"name":"Pucklechurch","lat":51.4867959,"lon":-2.4320655,"type":"village"},{"id":21261195,"name":"Wick","lat":51.4536326,"lon":-2.4303822,"type":"village"},{"id":21261233,"name":"Sydallt","lat":53.0900531,"lon":-3.0299853,"type":"village"},{"id":21262494,"name":"Perth","lat":56.3958757,"lon":-3.4303103,"type":"city"},{"id":21262495,"name":"Dundee","lat":56.4605938,"lon":-2.97019,"type":"city"},{"id":21262496,"name":"Croydon","lat":51.3713049,"lon":-0.101957,"type":"town"},{"id":21262936,"name":"Winchelsea","lat":50.9243896,"lon":0.7086362,"type":"town"},{"id":21266485,"name":"Bramhope","lat":53.885516,"lon":-1.6202619,"type":"village"},{"id":21266486,"name":"Pool in Wharfedale","lat":53.9026438,"lon":-1.6305098,"type":"village"},{"id":21266487,"name":"Huby","lat":53.9253039,"lon":-1.581842,"type":"village"},{"id":21268303,"name":"Stadhampton","lat":51.6815015,"lon":-1.1303534,"type":"village"},{"id":21268304,"name":"Drayton St Leonard","lat":51.6625567,"lon":-1.1376728,"type":"village"},{"id":21269129,"name":"Prestbury","lat":51.9141697,"lon":-2.0476721,"type":"village"},{"id":21269752,"name":"Kirton","lat":52.0108529,"lon":1.3199496,"type":"village"},{"id":21269753,"name":"Falkenham","lat":52.0021688,"lon":1.340107,"type":"village"},{"id":21269754,"name":"Newbourne","lat":52.0392887,"lon":1.3132491,"type":"village"},{"id":21269755,"name":"Hemley","lat":52.033277,"lon":1.3313228,"type":"village"},{"id":21272012,"name":"Trowbridge","lat":51.3200304,"lon":-2.2080071,"type":"town"},{"id":21273694,"name":"Morestead","lat":51.0266945,"lon":-1.2749469,"type":"hamlet"},{"id":21275456,"name":"Overy","lat":51.641497,"lon":-1.1601938,"type":"hamlet"},{"id":21275608,"name":"Dorchester-on-Thames","lat":51.6439528,"lon":-1.1660219,"type":"village"},{"id":21275865,"name":"Stockcross","lat":51.4159514,"lon":-1.377778,"type":"village"},{"id":21276195,"name":"Hawkesbury Upton","lat":51.5803826,"lon":-2.3190539,"type":"village"},{"id":21276196,"name":"Petty France","lat":51.5686869,"lon":-2.308958,"type":"hamlet"},{"id":21276197,"name":"Old Sodbury","lat":51.532571,"lon":-2.3538046,"type":"village"},{"id":21276198,"name":"Bagstone","lat":51.5856074,"lon":-2.4500473,"type":"hamlet"},{"id":21278143,"name":"Topsham","lat":50.6850732,"lon":-3.4658063,"type":"town"},{"id":21278290,"name":"Exmouth","lat":50.6190962,"lon":-3.4146801,"type":"town"},{"id":21279378,"name":"Evesham","lat":52.0940158,"lon":-1.9483083,"type":"town"},{"id":21280555,"name":"Hereford","lat":52.0553813,"lon":-2.7151735,"type":"city"},{"id":21280770,"name":"Bredon's Norton","lat":52.0499394,"lon":-2.1012344,"type":"village"},{"id":21280907,"name":"Bredon","lat":52.0311079,"lon":-2.112163,"type":"village"},{"id":21281060,"name":"Hartlebury","lat":52.3357637,"lon":-2.2343446,"type":"village"},{"id":21281107,"name":"Kidderminster","lat":52.3880787,"lon":-2.2478582,"type":"town"},{"id":21281239,"name":"Hagley","lat":52.4229627,"lon":-2.1416743,"type":"town"},{"id":21281251,"name":"Stourbridge","lat":52.4577615,"lon":-2.1474345,"type":"town"},{"id":21287671,"name":"Nuneham Courtenay","lat":51.6898005,"lon":-1.2035402,"type":"village"},{"id":21287672,"name":"Toot Baldon","lat":51.7022851,"lon":-1.1804133,"type":"village"},{"id":21292321,"name":"Winchelsea Beach","lat":50.9159158,"lon":0.7235794,"type":"village"},{"id":21292322,"name":"Cliff End","lat":50.8860501,"lon":0.6807292,"type":"village"},{"id":21292323,"name":"Pett Level","lat":50.8897591,"lon":0.6872141,"type":"village"},{"id":21293364,"name":"Aldeburgh","lat":52.1523814,"lon":1.6015691,"type":"town"},{"id":21299697,"name":"Church Stowe","lat":52.2131389,"lon":-1.0664735,"type":"village"},{"id":21301585,"name":"Havant","lat":50.8519351,"lon":-0.9821263,"type":"town"},{"id":21302252,"name":"Beauly","lat":57.483651,"lon":-4.4598354,"type":"town"},{"id":21307032,"name":"Carlton","lat":53.7393935,"lon":-1.4905556,"type":"village"},{"id":21307362,"name":"Thirsk","lat":54.2327725,"lon":-1.3423775,"type":"town"},{"id":21311978,"name":"Berinsfield","lat":51.6618432,"lon":-1.1724743,"type":"village"},{"id":21311979,"name":"Shillingford","lat":51.6300512,"lon":-1.1400984,"type":"village"},{"id":21311991,"name":"Clifton Hampden","lat":51.6575408,"lon":-1.2106403,"type":"village"},{"id":21311993,"name":"Abingdon","lat":51.6714842,"lon":-1.2779715,"type":"town"},{"id":21314123,"name":"Everleigh","lat":51.2814473,"lon":-1.710541,"type":"village"},{"id":21318568,"name":"Sheerness","lat":51.4398236,"lon":0.7620398,"type":"town"},{"id":21318877,"name":"Whitstable","lat":51.3606286,"lon":1.0240626,"type":"town"},{"id":21324010,"name":"Watton","lat":52.5699185,"lon":0.8253494,"type":"town"},{"id":21340919,"name":"Maldon","lat":51.731198,"lon":0.6791849,"type":"town"},{"id":21345918,"name":"Wilburton","lat":52.3531661,"lon":0.1777163,"type":"village"},{"id":21346514,"name":"Waterbeach","lat":52.2657649,"lon":0.1909734,"type":"village"},{"id":21362352,"name":"Kemble","lat":51.673959,"lon":-2.0180508,"type":"village"},{"id":21367638,"name":"Oakridge Lynch","lat":51.73149,"lon":-2.1244454,"type":"village"},{"id":21367639,"name":"Chalford","lat":51.7217427,"lon":-2.1483712,"type":"village"},{"id":21369318,"name":"Stonehouse","lat":51.7474678,"lon":-2.283024,"type":"town"},{"id":21369320,"name":"Stroud","lat":51.745424,"lon":-2.2198605,"type":"town"},{"id":21373826,"name":"Oldland Common","lat":51.4400977,"lon":-2.4694839,"type":"village"},{"id":21373827,"name":"North Common","lat":51.4508254,"lon":-2.466046,"type":"village"},{"id":21374718,"name":"Siston","lat":51.4748496,"lon":-2.4495469,"type":"village"},{"id":21376134,"name":"Webbs Heath","lat":51.4635793,"lon":-2.4596524,"type":"hamlet"},{"id":21377807,"name":"Tormarton","lat":51.5074729,"lon":-2.3336909,"type":"village"},{"id":21377955,"name":"Hinton","lat":51.4905602,"lon":-2.3840001,"type":"village"},{"id":21382933,"name":"Woodbridge","lat":52.0941323,"lon":1.3199383,"type":"town"},{"id":21387458,"name":"Thetford","lat":52.4156001,"lon":0.748712,"type":"town"},{"id":21387459,"name":"Bodney","lat":52.5552013,"lon":0.6966774,"type":"hamlet"},{"id":21387460,"name":"East Wretham","lat":52.4783733,"lon":0.820679,"type":"village"},{"id":21388121,"name":"Elveden","lat":52.3865765,"lon":0.6788292,"type":"hamlet"},{"id":21388612,"name":"Malmesbury","lat":51.58447,"lon":-2.0982042,"type":"town"},{"id":21388948,"name":"Acton Turville","lat":51.5267322,"lon":-2.2761686,"type":"village"},{"id":21388984,"name":"Luckington","lat":51.5534131,"lon":-2.2401782,"type":"village"},{"id":21388985,"name":"Sherston","lat":51.5715497,"lon":-2.2123454,"type":"village"},{"id":21389199,"name":"Tetbury","lat":51.639272,"lon":-2.1594783,"type":"town"},{"id":21391763,"name":"Sherburn in Elmet","lat":53.7976393,"lon":-1.2518925,"type":"town"},{"id":21391764,"name":"South Milford","lat":53.7788049,"lon":-1.2462077,"type":"village"},{"id":21393918,"name":"Aberaeron","lat":52.2431766,"lon":-4.2600153,"type":"town"},{"id":21395759,"name":"Aberteifi / Cardigan","lat":52.0839973,"lon":-4.6604224,"type":"town"},{"id":21409982,"name":"Bury St Edmunds","lat":52.2460367,"lon":0.7125173,"type":"town"},{"id":21411035,"name":"Pembroke","lat":51.6754422,"lon":-4.9144858,"type":"town"},{"id":21413029,"name":"Tenby","lat":51.6726128,"lon":-4.7050443,"type":"town"},{"id":21413062,"name":"Carmarthen","lat":51.8591257,"lon":-4.3115907,"type":"town"},{"id":21413323,"name":"Llanelli","lat":51.6797331,"lon":-4.1620223,"type":"town"},{"id":21413563,"name":"Bangor","lat":53.2277163,"lon":-4.1268822,"type":"city"},{"id":21414870,"name":"Loughton","lat":51.6467058,"lon":0.0544098,"type":"town"},{"id":21420664,"name":"Sutton Benger","lat":51.5063642,"lon":-2.0799724,"type":"village"},{"id":21420703,"name":"Chippenham","lat":51.4587621,"lon":-2.1159032,"type":"town"},{"id":21421224,"name":"Dover","lat":51.1251275,"lon":1.3134228,"type":"town"},{"id":21421501,"name":"Liverpool","lat":53.4071991,"lon":-2.99168,"type":"city"},{"id":21428463,"name":"Barlow","lat":54.9439246,"lon":-1.7566456,"type":"hamlet"},{"id":21428464,"name":"High Spen","lat":54.9328143,"lon":-1.7829673,"type":"village"},{"id":21430324,"name":"Montford Bridge","lat":52.7323846,"lon":-2.8427067,"type":"village"},{"id":21430838,"name":"Hookergate","lat":54.9267993,"lon":-1.7815607,"type":"hamlet"},{"id":21430877,"name":"Burnopfield","lat":54.9060459,"lon":-1.7288018,"type":"village"},{"id":21430920,"name":"Garesfield","lat":54.9161144,"lon":-1.7715887,"type":"hamlet"},{"id":21430924,"name":"Victoria Garesfield","lat":54.9184112,"lon":-1.7774784,"type":"hamlet"},{"id":21430931,"name":"Winlaton","lat":54.9509317,"lon":-1.7260494,"type":"village"},{"id":21430932,"name":"Blaydon on Tyne","lat":54.9646163,"lon":-1.7115301,"type":"town"},{"id":21431025,"name":"Chopwell","lat":54.9194624,"lon":-1.8133105,"type":"village"},{"id":21431028,"name":"Ebchester","lat":54.8938976,"lon":-1.8401949,"type":"village"},{"id":21434598,"name":"Easter Compton","lat":51.5389251,"lon":-2.6197352,"type":"village"},{"id":21434599,"name":"Over","lat":51.5395603,"lon":-2.596001,"type":"village"},{"id":21434600,"name":"Staines-upon-Thames","lat":51.434012,"lon":-0.511044,"type":"town"},{"id":21434926,"name":"Chorley","lat":53.6531915,"lon":-2.6294313,"type":"town"},{"id":21436318,"name":"Preston","lat":53.7593363,"lon":-2.6992717,"type":"city"},{"id":21436398,"name":"Arthington","lat":53.8976437,"lon":-1.5860531,"type":"village"},{"id":21448742,"name":"Selby","lat":53.784012,"lon":-1.0687806,"type":"town"},{"id":21448978,"name":"Market Weighton","lat":53.8643625,"lon":-0.6679698,"type":"town"},{"id":21452510,"name":"Westfield","lat":52.6470664,"lon":0.9425263,"type":"hamlet"},{"id":21452511,"name":"Yaxham","lat":52.6563784,"lon":0.968614,"type":"village"},{"id":21452663,"name":"Barnham Broom","lat":52.6246519,"lon":1.0750484,"type":"village"},{"id":21455102,"name":"Stowmarket","lat":52.1878147,"lon":0.9973428,"type":"town"},{"id":21455103,"name":"Stowupland","lat":52.1984806,"lon":1.022316,"type":"village"},{"id":21458266,"name":"Swillington","lat":53.7684422,"lon":-1.4230156,"type":"village"},{"id":21475255,"name":"Nailsworth","lat":51.6952392,"lon":-2.2185599,"type":"town"},{"id":21475256,"name":"Minchinhampton","lat":51.705283,"lon":-2.18725,"type":"town"},{"id":21479445,"name":"Biggin","lat":53.808064,"lon":-1.1750279,"type":"hamlet"},{"id":21479474,"name":"Cawood","lat":53.8314183,"lon":-1.1303766,"type":"village"},{"id":21479567,"name":"Wistow","lat":53.8133173,"lon":-1.1003587,"type":"village"},{"id":21479604,"name":"Little Stanney","lat":53.2609705,"lon":-2.8821838,"type":"hamlet"},{"id":21480176,"name":"Westonbirt","lat":51.6040891,"lon":-2.2058112,"type":"village"},{"id":21496954,"name":"Amesbury","lat":51.1723002,"lon":-1.7817518,"type":"town"},{"id":21503243,"name":"Colchester","lat":51.8896903,"lon":0.8994651,"type":"city"},{"id":21503284,"name":"Braintree","lat":51.8780637,"lon":0.5537161,"type":"town"},{"id":21507188,"name":"Mattishall","lat":52.6596767,"lon":1.0282759,"type":"village"},{"id":21511355,"name":"Carnoustie","lat":56.5010506,"lon":-2.711403,"type":"town"},{"id":21511420,"name":"Monifieth","lat":56.481796,"lon":-2.8180074,"type":"town"},{"id":21511528,"name":"Leuchars","lat":56.381411,"lon":-2.8838885,"type":"town"},{"id":21511530,"name":"St Andrews","lat":56.3403678,"lon":-2.795044,"type":"town"},{"id":21511611,"name":"Clapham","lat":50.6727549,"lon":-3.5624921,"type":"hamlet"},{"id":21512449,"name":"Eastham Village","lat":53.3144641,"lon":-2.9599091,"type":"village"},{"id":21517339,"name":"Springfield","lat":56.2952787,"lon":-3.0645656,"type":"village"},{"id":21517367,"name":"Pewsey","lat":51.3393362,"lon":-1.7648308,"type":"village"},{"id":21517379,"name":"Ladybank","lat":56.2781959,"lon":-3.1255066,"type":"village"},{"id":21517660,"name":"Wroughton","lat":51.5252185,"lon":-1.7910777,"type":"village"},{"id":21517687,"name":"Hungerford","lat":51.4152563,"lon":-1.5154011,"type":"town"},{"id":21517801,"name":"Kintbury","lat":51.3993129,"lon":-1.4508045,"type":"village"},{"id":21518371,"name":"Bridge of Earn","lat":56.3490571,"lon":-3.4064791,"type":"town"},{"id":21519182,"name":"Attleborough","lat":52.5179648,"lon":1.0105931,"type":"town"},{"id":21519275,"name":"Campton","lat":52.0293565,"lon":-0.3535435,"type":"village"},{"id":21519563,"name":"Fakenham","lat":52.829919,"lon":0.8477322,"type":"town"},{"id":21519853,"name":"Dereham","lat":52.6802052,"lon":0.9386329,"type":"town"},{"id":21525582,"name":"Kintore","lat":57.2369921,"lon":-2.3455269,"type":"town"},{"id":21531322,"name":"Inverurie","lat":57.2839493,"lon":-2.3742854,"type":"town"},{"id":21532920,"name":"Forres","lat":57.609864,"lon":-3.613215,"type":"town"},{"id":21533411,"name":"Nairn","lat":57.5850133,"lon":-3.8681503,"type":"town"},{"id":21538911,"name":"Bryn Common","lat":53.0988818,"lon":-3.0970437,"type":"hamlet"},{"id":21539678,"name":"Church End","lat":52.0214212,"lon":-0.2599951,"type":"village"},{"id":21539679,"name":"Letchworth","lat":51.9794982,"lon":-0.2294613,"type":"town"},{"id":21541044,"name":"Devauden","lat":51.6884656,"lon":-2.7503924,"type":"village"},{"id":21541057,"name":"St Arvans","lat":51.6649416,"lon":-2.6988906,"type":"village"},{"id":21541150,"name":"Shirenewton","lat":51.6387222,"lon":-2.7532619,"type":"village"},{"id":21542372,"name":"Leiston","lat":52.20648,"lon":1.5764329,"type":"town"},{"id":21542512,"name":"Cleeve Hill","lat":51.9378029,"lon":-2.0293945,"type":"village"},{"id":21546254,"name":"Liskeard","lat":50.4546303,"lon":-4.4644227,"type":"town"},{"id":21546264,"name":"Hitchin","lat":51.9486943,"lon":-0.2779124,"type":"town"},{"id":21549590,"name":"Newgale","lat":51.8574211,"lon":-5.1262272,"type":"village"},{"id":21549591,"name":"Nolton Haven","lat":51.8252708,"lon":-5.1061143,"type":"village"},{"id":21549592,"name":"Druidston Haven","lat":51.8116373,"lon":-5.1023877,"type":"hamlet"},{"id":21549593,"name":"Roch","lat":51.8464345,"lon":-5.0859186,"type":"village"},{"id":21552395,"name":"Willian","lat":51.9602456,"lon":-0.2203753,"type":"village"},{"id":21554314,"name":"Fowey","lat":50.3357786,"lon":-4.6365952,"type":"town"},{"id":21556603,"name":"Graveley","lat":51.9355725,"lon":-0.2099339,"type":"village"},{"id":21556900,"name":"Ossett","lat":53.6780539,"lon":-1.5765949,"type":"town"},{"id":21558511,"name":"Dundry","lat":51.3973448,"lon":-2.6390474,"type":"village"},{"id":21563385,"name":"Little Haseley","lat":51.7001948,"lon":-1.0734045,"type":"hamlet"},{"id":21563386,"name":"Great Haseley","lat":51.7108991,"lon":-1.0702833,"type":"village"},{"id":21564237,"name":"Great Milton","lat":51.7214445,"lon":-1.0899799,"type":"village"},{"id":21583054,"name":"Yeaton","lat":52.7689826,"lon":-2.841169,"type":"village"},{"id":21583055,"name":"Walford Heath","lat":52.7734097,"lon":-2.8195336,"type":"hamlet"},{"id":21583123,"name":"Bomere Heath","lat":52.7720992,"lon":-2.7803761,"type":"village"},{"id":21583226,"name":"Shaftesbury","lat":51.006067,"lon":-2.1960772,"type":"town"},{"id":21583227,"name":"Blandford Forum","lat":50.8560049,"lon":-2.1651766,"type":"town"},{"id":21598107,"name":"Aberystwyth","lat":52.4143113,"lon":-4.0816846,"type":"town"},{"id":21607173,"name":"Bridgnorth","lat":52.5345626,"lon":-2.4194132,"type":"town"},{"id":21608799,"name":"Duckhole","lat":51.628958,"lon":-2.5210475,"type":"hamlet"},{"id":21608800,"name":"Lower Morton","lat":51.6243858,"lon":-2.5168125,"type":"hamlet"},{"id":21620264,"name":"Llanbedrog","lat":52.8587079,"lon":-4.4869757,"type":"village"},{"id":21639941,"name":"Grimsby","lat":53.5671407,"lon":-0.0788045,"type":"town"},{"id":21640482,"name":"Market Rasen","lat":53.3879115,"lon":-0.3376729,"type":"town"},{"id":21641028,"name":"Gainsborough","lat":53.3995376,"lon":-0.7758801,"type":"town"},{"id":21642755,"name":"Llangwm","lat":51.6956903,"lon":-2.8320104,"type":"village"},{"id":21650073,"name":"Parley Cross","lat":50.7806678,"lon":-1.8826424,"type":"village"},{"id":21651853,"name":"Retford","lat":53.3231315,"lon":-0.9424879,"type":"town"},{"id":21652617,"name":"Sale","lat":53.4244939,"lon":-2.318415,"type":"town"},{"id":21654942,"name":"Ellesmere Port","lat":53.2789347,"lon":-2.9022507,"type":"town"},{"id":21661354,"name":"Oldbury on Severn","lat":51.62977,"lon":-2.5654451,"type":"village"},{"id":21663920,"name":"Skipton","lat":53.9618497,"lon":-2.0160287,"type":"town"},{"id":21664715,"name":"Clitheroe","lat":53.8717465,"lon":-2.3926783,"type":"town"},{"id":21664801,"name":"Blackburn","lat":53.749326,"lon":-2.4840566,"type":"town"},{"id":21688004,"name":"Woodcote","lat":51.5315004,"lon":-1.0742091,"type":"village"},{"id":21688005,"name":"Checkendon","lat":51.5439758,"lon":-1.0403108,"type":"village"},{"id":21688472,"name":"Cookley Green","lat":51.6063281,"lon":-0.9970787,"type":"village"},{"id":21688582,"name":"Park Corner","lat":51.5924528,"lon":-1.000267,"type":"village"},{"id":21688858,"name":"Christmas Common","lat":51.6330543,"lon":-0.9687969,"type":"hamlet"},{"id":21689575,"name":"Chinnor","lat":51.7013543,"lon":-0.9111593,"type":"village"},{"id":21693668,"name":"Slip End","lat":51.8546531,"lon":-0.4336288,"type":"village"},{"id":21701802,"name":"Pardshaw","lat":54.6107393,"lon":-3.4013322,"type":"village"},{"id":21702118,"name":"Pardshaw Hall","lat":54.6158035,"lon":-3.3899276,"type":"hamlet"},{"id":21702119,"name":"Mosser","lat":54.6117695,"lon":-3.3700229,"type":"hamlet"},{"id":21710587,"name":"North Pickenham","lat":52.6282344,"lon":0.7526803,"type":"village"},{"id":21710588,"name":"South Pickenham","lat":52.6035592,"lon":0.7400626,"type":"village"},{"id":21711749,"name":"Wigginton","lat":54.0186196,"lon":-1.0900603,"type":"village"},{"id":21712579,"name":"Tutshill","lat":51.6501151,"lon":-2.6666847,"type":"village"},{"id":21712707,"name":"Woodcroft","lat":51.6571556,"lon":-2.6624362,"type":"village"},{"id":21713678,"name":"Trellech","lat":51.7450901,"lon":-2.7244457,"type":"village"},{"id":21715882,"name":"Ide","lat":50.7048509,"lon":-3.5568952,"type":"village"},{"id":21737656,"name":"Pegswood","lat":55.1808109,"lon":-1.646577,"type":"village"},{"id":21739813,"name":"Thompson","lat":52.5336168,"lon":0.8288988,"type":"village"},{"id":21742491,"name":"Eccleshall","lat":52.858059,"lon":-2.2511202,"type":"town"},{"id":21742604,"name":"Yarnfield","lat":52.8911765,"lon":-2.200879,"type":"village"},{"id":21742606,"name":"Offley Hay","lat":52.8606164,"lon":-2.3040586,"type":"hamlet"},{"id":21746508,"name":"Barton Stacey","lat":51.1652672,"lon":-1.3785775,"type":"village"},{"id":21749193,"name":"Kington St Michael","lat":51.4965792,"lon":-2.142062,"type":"village"},{"id":21749194,"name":"Grittleton","lat":51.5194144,"lon":-2.2035013,"type":"village"},{"id":21749195,"name":"Burton","lat":51.5132494,"lon":-2.2681726,"type":"village"},{"id":21757281,"name":"Downham Market","lat":52.6025943,"lon":0.3772655,"type":"town"},{"id":21757412,"name":"Jedburgh","lat":55.4776435,"lon":-2.5553768,"type":"town"},{"id":21757413,"name":"Denholm","lat":55.4580383,"lon":-2.6836244,"type":"village"},{"id":21757414,"name":"Minto","lat":55.4735937,"lon":-2.6878785,"type":"village"},{"id":21760175,"name":"Shrewton","lat":51.1941786,"lon":-1.9037529,"type":"village"},{"id":21760349,"name":"Codford","lat":51.1580789,"lon":-2.0447118,"type":"village"},{"id":21762646,"name":"Kennford","lat":50.6664936,"lon":-3.5354377,"type":"village"},{"id":21762650,"name":"Exminster","lat":50.6785394,"lon":-3.4955657,"type":"village"},{"id":21762658,"name":"Shillingford St George","lat":50.6807695,"lon":-3.5532111,"type":"village"},{"id":21762659,"name":"Shillingford Abbot","lat":50.6889078,"lon":-3.5434038,"type":"village"},{"id":21764075,"name":"Shaldon","lat":50.5396762,"lon":-3.5048697,"type":"village"},{"id":21764082,"name":"Kingsteignton","lat":50.549595,"lon":-3.5955735,"type":"town"},{"id":21764083,"name":"Newton Abbot","lat":50.5296441,"lon":-3.6112097,"type":"town"},{"id":21764118,"name":"Dawlish Warren","lat":50.5988087,"lon":-3.4480087,"type":"village"},{"id":21764119,"name":"Dawlish","lat":50.5797391,"lon":-3.468931,"type":"town"},{"id":21764120,"name":"Bovey Tracey","lat":50.5924367,"lon":-3.6761482,"type":"town"},{"id":21765884,"name":"Caston","lat":52.5415431,"lon":0.8849727,"type":"village"},{"id":21766383,"name":"Gallowstree Common","lat":51.5163288,"lon":-1.0077452,"type":"village"},{"id":21766384,"name":"Cane End","lat":51.5105553,"lon":-1.0241984,"type":"hamlet"},{"id":21873631,"name":"Old Knebworth","lat":51.8688335,"lon":-0.2139781,"type":"village"},{"id":21880944,"name":"Nettlebed","lat":51.5766618,"lon":-0.9907058,"type":"village"},{"id":21884952,"name":"Stoke Row","lat":51.5512365,"lon":-1.0207249,"type":"village"},{"id":21885194,"name":"Witheridge Hill","lat":51.5518841,"lon":-0.9978121,"type":"hamlet"},{"id":21885657,"name":"Highmoor","lat":51.5530601,"lon":-0.9916125,"type":"village"},{"id":21890359,"name":"Greys Green","lat":51.5420548,"lon":-0.9632583,"type":"hamlet"},{"id":21891258,"name":"Rotherfield Greys","lat":51.5356454,"lon":-0.9539297,"type":"village"},{"id":21891388,"name":"St Brides","lat":51.7535491,"lon":-5.185137,"type":"hamlet"},{"id":21897643,"name":"Hurley","lat":51.5455044,"lon":-0.8101712,"type":"village"},